[
  {
    "_id": "144",
    "code": "144",
    "name": "AINABKOI",
    "center": {
      "lat": 0.316909,
      "lon": 35.454233
    },
    "wards": [
      {
        "code": "0721",
        "name": "AINABKOI/OLARE",
        "center": {
          "lat": 0.20469,
          "lon": 35.500608
        },
        "polygon": "https://raw.githubusercontent.com/gaithoben/kenya-geo/master/ward/wardpolygons/0721.json"
      },
      {
        "code": "0719",
        "name": "KAPSOYA",
        "center": {
          "lat": 0.520393,
          "lon": 35.320549
        },
        "polygon": "https://raw.githubusercontent.com/gaithoben/kenya-geo/master/ward/wardpolygons/0719.json"
      },
      {
        "code": "0720",
        "name": "KAPTAGAT",
        "center": {
          "lat": 0.42814,
          "lon": 35.422417
        },
        "polygon": "https://raw.githubusercontent.com/gaithoben/kenya-geo/master/ward/wardpolygons/0720.json"
      }
    ],
    "polygon": "https://raw.githubusercontent.com/gaithoben/kenya-geo/master/constituency/constituencypolygons/144.json"
  },
  {
    "_id": "190",
    "code": "190",
    "name": "AINAMOI",
    "center": {
      "lat": -0.303028,
      "lon": 35.276669
    },
    "wards": [
      {
        "code": "0945",
        "name": "AINAMOI",
        "center": {
          "lat": -0.26719,
          "lon": 35.282392
        },
        "polygon": "https://raw.githubusercontent.com/gaithoben/kenya-geo/master/ward/wardpolygons/0945.json"
      },
      {
        "code": "0946",
        "name": "KAPKUGERWET",
        "center": {
          "lat": -0.335759,
          "lon": 35.30377
        },
        "polygon": "https://raw.githubusercontent.com/gaithoben/kenya-geo/master/ward/wardpolygons/0946.json"
      },
      {
        "code": "0949",
        "name": "KAPSAOS",
        "center": {
          "lat": -0.279713,
          "lon": 35.346944
        },
        "polygon": "https://raw.githubusercontent.com/gaithoben/kenya-geo/master/ward/wardpolygons/0949.json"
      },
      {
        "code": "0944",
        "name": "KAPSOIT",
        "center": {
          "lat": -0.286273,
          "lon": 35.215692
        },
        "polygon": "https://raw.githubusercontent.com/gaithoben/kenya-geo/master/ward/wardpolygons/0944.json"
      },
      {
        "code": "0947",
        "name": "KIPCHEBOR",
        "center": {
          "lat": -0.371358,
          "lon": 35.264967
        },
        "polygon": "https://raw.githubusercontent.com/gaithoben/kenya-geo/master/ward/wardpolygons/0947.json"
      },
      {
        "code": "0948",
        "name": "KIPCHIMCHIM",
        "center": {
          "lat": -0.322648,
          "lon": 35.272298
        },
        "polygon": "https://raw.githubusercontent.com/gaithoben/kenya-geo/master/ward/wardpolygons/0948.json"
      }
    ],
    "polygon": "https://raw.githubusercontent.com/gaithoben/kenya-geo/master/constituency/constituencypolygons/190.json"
  },
  {
    "_id": "152",
    "code": "152",
    "name": "ALDAI",
    "center": {
      "lat": 0.048994,
      "lon": 34.959025
    },
    "wards": [
      {
        "code": "0755",
        "name": "KABWARENG",
        "center": {
          "lat": 0.114182,
          "lon": 34.894848
        },
        "polygon": "https://raw.githubusercontent.com/gaithoben/kenya-geo/master/ward/wardpolygons/0755.json"
      },
      {
        "code": "0759",
        "name": "KAPTUMO-KABOI",
        "center": {
          "lat": 0.099636,
          "lon": 35.062164
        },
        "polygon": "https://raw.githubusercontent.com/gaithoben/kenya-geo/master/ward/wardpolygons/0759.json"
      },
      {
        "code": "0757",
        "name": "KEMELOI-MARABA",
        "center": {
          "lat": 0.022056,
          "lon": 34.889812
        },
        "polygon": "https://raw.githubusercontent.com/gaithoben/kenya-geo/master/ward/wardpolygons/0757.json"
      },
      {
        "code": "0758",
        "name": "KOBUJOI",
        "center": {
          "lat": 0.046169,
          "lon": 34.96893
        },
        "polygon": "https://raw.githubusercontent.com/gaithoben/kenya-geo/master/ward/wardpolygons/0758.json"
      },
      {
        "code": "0760",
        "name": "KOYO-NDURIO",
        "center": {
          "lat": 0.02318,
          "lon": 35.04509
        },
        "polygon": "https://raw.githubusercontent.com/gaithoben/kenya-geo/master/ward/wardpolygons/0760.json"
      },
      {
        "code": "0756",
        "name": "TERIK",
        "center": {
          "lat": 0.022848,
          "lon": 34.821285
        },
        "polygon": "https://raw.githubusercontent.com/gaithoben/kenya-geo/master/ward/wardpolygons/0756.json"
      }
    ],
    "polygon": "https://raw.githubusercontent.com/gaithoben/kenya-geo/master/constituency/constituencypolygons/152.json"
  },
  {
    "_id": "234",
    "code": "234",
    "name": "ALEGO USONGA",
    "center": {
      "lat": 0.064157,
      "lon": 34.232099
    },
    "wards": [
      {
        "code": "1165",
        "name": "CENTRAL ALEGO",
        "center": {
          "lat": 0.088633,
          "lon": 34.225191
        },
        "polygon": "https://raw.githubusercontent.com/gaithoben/kenya-geo/master/ward/wardpolygons/1165.json"
      },
      {
        "code": "1167",
        "name": "NORTH ALEGO",
        "center": {
          "lat": 0.112489,
          "lon": 34.314956
        },
        "polygon": "https://raw.githubusercontent.com/gaithoben/kenya-geo/master/ward/wardpolygons/1167.json"
      },
      {
        "code": "1166",
        "name": "SIAYA TOWNSHIP",
        "center": {
          "lat": 0.057935,
          "lon": 34.276431
        },
        "polygon": "https://raw.githubusercontent.com/gaithoben/kenya-geo/master/ward/wardpolygons/1166.json"
      },
      {
        "code": "1168",
        "name": "SOUTH EAST ALEGO",
        "center": {
          "lat": 0.017432,
          "lon": 34.295752
        },
        "polygon": "https://raw.githubusercontent.com/gaithoben/kenya-geo/master/ward/wardpolygons/1168.json"
      },
      {
        "code": "1163",
        "name": "USONGA",
        "center": {
          "lat": 0.070123,
          "lon": 34.099002
        },
        "polygon": "https://raw.githubusercontent.com/gaithoben/kenya-geo/master/ward/wardpolygons/1163.json"
      },
      {
        "code": "1164",
        "name": "WEST ALEGO",
        "center": {
          "lat": 0.118366,
          "lon": 34.170475
        },
        "polygon": "https://raw.githubusercontent.com/gaithoben/kenya-geo/master/ward/wardpolygons/1164.json"
      }
    ],
    "polygon": "https://raw.githubusercontent.com/gaithoben/kenya-geo/master/constituency/constituencypolygons/234.json"
  },
  {
    "_id": "254",
    "code": "254",
    "name": "AWENDO",
    "center": {
      "lat": -0.869636,
      "lon": 34.541918
    },
    "wards": [
      {
        "code": "1268",
        "name": "CENTRAL SAKWA",
        "center": {
          "lat": -0.858261,
          "lon": 34.533221
        },
        "polygon": "https://raw.githubusercontent.com/gaithoben/kenya-geo/master/ward/wardpolygons/1268.json"
      },
      {
        "code": "1265",
        "name": "NORTH SAKWA",
        "center": {
          "lat": -0.784615,
          "lon": 34.541793
        },
        "polygon": "https://raw.githubusercontent.com/gaithoben/kenya-geo/master/ward/wardpolygons/1265.json"
      },
      {
        "code": "1266",
        "name": "SOUTH SAKWA",
        "center": {
          "lat": -0.937371,
          "lon": 34.569625
        },
        "polygon": "https://raw.githubusercontent.com/gaithoben/kenya-geo/master/ward/wardpolygons/1266.json"
      },
      {
        "code": "1267",
        "name": "WEST SAKWA",
        "center": {
          "lat": -0.830832,
          "lon": 34.501202
        },
        "polygon": "https://raw.githubusercontent.com/gaithoben/kenya-geo/master/ward/wardpolygons/1267.json"
      }
    ],
    "polygon": "https://raw.githubusercontent.com/gaithoben/kenya-geo/master/constituency/constituencypolygons/254.json"
  },
  {
    "_id": "174",
    "code": "174",
    "name": "BAHATI",
    "center": {
      "lat": -0.209806,
      "lon": 36.127899
    },
    "wards": [
      {
        "code": "0869",
        "name": "BAHATI",
        "center": {
          "lat": -0.152775,
          "lon": 36.157418
        },
        "polygon": "https://raw.githubusercontent.com/gaithoben/kenya-geo/master/ward/wardpolygons/0869.json"
      },
      {
        "code": "0865",
        "name": "DUNDORI",
        "center": {
          "lat": -0.239583,
          "lon": 36.200494
        },
        "polygon": "https://raw.githubusercontent.com/gaithoben/kenya-geo/master/ward/wardpolygons/0865.json"
      },
      {
        "code": "0866",
        "name": "KABATINI",
        "center": {
          "lat": -0.19809,
          "lon": 36.163893
        },
        "polygon": "https://raw.githubusercontent.com/gaithoben/kenya-geo/master/ward/wardpolygons/0866.json"
      },
      {
        "code": "0867",
        "name": "KIAMAINA",
        "center": {
          "lat": -0.202532,
          "lon": 36.07029
        },
        "polygon": "https://raw.githubusercontent.com/gaithoben/kenya-geo/master/ward/wardpolygons/0867.json"
      },
      {
        "code": "0868",
        "name": "LANET/UMOJA",
        "center": {
          "lat": -0.291016,
          "lon": 36.177298
        },
        "polygon": "https://raw.githubusercontent.com/gaithoben/kenya-geo/master/ward/wardpolygons/0868.json"
      }
    ],
    "polygon": "https://raw.githubusercontent.com/gaithoben/kenya-geo/master/constituency/constituencypolygons/174.json"
  },
  {
    "_id": "028",
    "code": "028",
    "name": "BALAMBALA",
    "center": {
      "lat": 0.066578,
      "lon": 39.200724
    },
    "wards": [
      {
        "code": "0135",
        "name": "BALAMBALA",
        "center": {
          "lat": 0.182562,
          "lon": 39.236873
        },
        "polygon": "https://raw.githubusercontent.com/gaithoben/kenya-geo/master/ward/wardpolygons/0135.json"
      },
      {
        "code": "0136",
        "name": "DANYERE",
        "center": {
          "lat": 0.125209,
          "lon": 38.817739
        },
        "polygon": "https://raw.githubusercontent.com/gaithoben/kenya-geo/master/ward/wardpolygons/0136.json"
      },
      {
        "code": "0137",
        "name": "JARA JARA",
        "center": {
          "lat": 0.184488,
          "lon": 38.954093
        },
        "polygon": "https://raw.githubusercontent.com/gaithoben/kenya-geo/master/ward/wardpolygons/0137.json"
      },
      {
        "code": "0138",
        "name": "SAKA  ",
        "center": {
          "lat": -0.006033,
          "lon": 39.25416
        },
        "polygon": "https://raw.githubusercontent.com/gaithoben/kenya-geo/master/ward/wardpolygons/0138.json"
      },
      {
        "code": "0139",
        "name": "SANKURI",
        "center": {
          "lat": -0.164693,
          "lon": 39.598015
        },
        "polygon": "https://raw.githubusercontent.com/gaithoben/kenya-geo/master/ward/wardpolygons/0139.json"
      }
    ],
    "polygon": "https://raw.githubusercontent.com/gaithoben/kenya-geo/master/constituency/constituencypolygons/028.json"
  },
  {
    "_id": "040",
    "code": "040",
    "name": "BANISSA",
    "center": {
      "lat": 3.996367,
      "lon": 40.507561
    },
    "wards": [
      {
        "code": "0196",
        "name": "BANISSA",
        "center": {
          "lat": 3.942303,
          "lon": 40.37447
        },
        "polygon": "https://raw.githubusercontent.com/gaithoben/kenya-geo/master/ward/wardpolygons/0196.json"
      },
      {
        "code": "0197",
        "name": "DERKHALE",
        "center": {
          "lat": 3.844541,
          "lon": 40.189786
        },
        "polygon": "https://raw.githubusercontent.com/gaithoben/kenya-geo/master/ward/wardpolygons/0197.json"
      },
      {
        "code": "0198",
        "name": "GUBA",
        "center": {
          "lat": 3.956656,
          "lon": 40.589856
        },
        "polygon": "https://raw.githubusercontent.com/gaithoben/kenya-geo/master/ward/wardpolygons/0198.json"
      },
      {
        "code": "0200",
        "name": "KILIWEHIRI",
        "center": {
          "lat": 3.971287,
          "lon": 40.157358
        },
        "polygon": "https://raw.githubusercontent.com/gaithoben/kenya-geo/master/ward/wardpolygons/0200.json"
      },
      {
        "code": "0199",
        "name": "MALKAMARI",
        "center": {
          "lat": 4.128809,
          "lon": 40.703042
        },
        "polygon": "https://raw.githubusercontent.com/gaithoben/kenya-geo/master/ward/wardpolygons/0199.json"
      }
    ],
    "polygon": "https://raw.githubusercontent.com/gaithoben/kenya-geo/master/constituency/constituencypolygons/040.json"
  },
  {
    "_id": "158",
    "code": "158",
    "name": "BARINGO  NORTH",
    "center": {
      "lat": 0.753312,
      "lon": 35.794812
    },
    "wards": [
      {
        "code": "0792",
        "name": "BARTABWA",
        "center": {
          "lat": 0.88421,
          "lon": 35.794161
        },
        "polygon": "https://raw.githubusercontent.com/gaithoben/kenya-geo/master/ward/wardpolygons/0792.json"
      },
      {
        "code": "0788",
        "name": "BARWESSA",
        "center": {
          "lat": 0.721345,
          "lon": 35.678104
        },
        "polygon": "https://raw.githubusercontent.com/gaithoben/kenya-geo/master/ward/wardpolygons/0788.json"
      },
      {
        "code": "0789",
        "name": "KABARTONJO",
        "center": {
          "lat": 0.639258,
          "lon": 35.765633
        },
        "polygon": "https://raw.githubusercontent.com/gaithoben/kenya-geo/master/ward/wardpolygons/0789.json"
      },
      {
        "code": "0790",
        "name": "SAIMO/KIPSARAMAN",
        "center": {
          "lat": 0.694165,
          "lon": 35.810745
        },
        "polygon": "https://raw.githubusercontent.com/gaithoben/kenya-geo/master/ward/wardpolygons/0790.json"
      },
      {
        "code": "0791",
        "name": "SAIMO/SOI",
        "center": {
          "lat": 0.703905,
          "lon": 35.918671
        },
        "polygon": "https://raw.githubusercontent.com/gaithoben/kenya-geo/master/ward/wardpolygons/0791.json"
      }
    ],
    "polygon": "https://raw.githubusercontent.com/gaithoben/kenya-geo/master/constituency/constituencypolygons/158.json"
  },
  {
    "_id": "159",
    "code": "159",
    "name": "BARINGO CENTRAL",
    "center": {
      "lat": 0.427763,
      "lon": 35.748744
    },
    "wards": [
      {
        "code": "0796",
        "name": "EWALEL/CHAPCHAP",
        "center": {
          "lat": 0.469393,
          "lon": 35.817944
        },
        "polygon": "https://raw.githubusercontent.com/gaithoben/kenya-geo/master/ward/wardpolygons/0796.json"
      },
      {
        "code": "0793",
        "name": "KABARNET",
        "center": {
          "lat": 0.519751,
          "lon": 35.684055
        },
        "polygon": "https://raw.githubusercontent.com/gaithoben/kenya-geo/master/ward/wardpolygons/0793.json"
      },
      {
        "code": "0797",
        "name": "KAPROPITA",
        "center": {
          "lat": 0.457193,
          "lon": 35.732416
        },
        "polygon": "https://raw.githubusercontent.com/gaithoben/kenya-geo/master/ward/wardpolygons/0797.json"
      },
      {
        "code": "0794",
        "name": "SACHO",
        "center": {
          "lat": 0.388404,
          "lon": 35.745996
        },
        "polygon": "https://raw.githubusercontent.com/gaithoben/kenya-geo/master/ward/wardpolygons/0794.json"
      },
      {
        "code": "0795",
        "name": "TENGES",
        "center": {
          "lat": 0.291683,
          "lon": 35.751935
        },
        "polygon": "https://raw.githubusercontent.com/gaithoben/kenya-geo/master/ward/wardpolygons/0795.json"
      }
    ],
    "polygon": "https://raw.githubusercontent.com/gaithoben/kenya-geo/master/constituency/constituencypolygons/159.json"
  },
  {
    "_id": "160",
    "code": "160",
    "name": "BARINGO SOUTH",
    "center": {
      "lat": 0.468455,
      "lon": 36.063226
    },
    "wards": [
      {
        "code": "0799",
        "name": "ILCHAMUS",
        "center": {
          "lat": 0.576707,
          "lon": 36.056186
        },
        "polygon": "https://raw.githubusercontent.com/gaithoben/kenya-geo/master/ward/wardpolygons/0799.json"
      },
      {
        "code": "0798",
        "name": "MARIGAT",
        "center": {
          "lat": 0.446841,
          "lon": 35.913458
        },
        "polygon": "https://raw.githubusercontent.com/gaithoben/kenya-geo/master/ward/wardpolygons/0798.json"
      },
      {
        "code": "0800",
        "name": "MOCHONGOI",
        "center": {
          "lat": 0.341937,
          "lon": 36.146636
        },
        "polygon": "https://raw.githubusercontent.com/gaithoben/kenya-geo/master/ward/wardpolygons/0800.json"
      },
      {
        "code": "0801",
        "name": "MUKUTANI",
        "center": {
          "lat": 0.546412,
          "lon": 36.180403
        },
        "polygon": "https://raw.githubusercontent.com/gaithoben/kenya-geo/master/ward/wardpolygons/0801.json"
      }
    ],
    "polygon": "https://raw.githubusercontent.com/gaithoben/kenya-geo/master/constituency/constituencypolygons/160.json"
  },
  {
    "_id": "192",
    "code": "192",
    "name": "BELGUT",
    "center": {
      "lat": -0.410786,
      "lon": 35.269715
    },
    "wards": [
      {
        "code": "0960",
        "name": "CHAIK",
        "center": {
          "lat": -0.419279,
          "lon": 35.347141
        },
        "polygon": "https://raw.githubusercontent.com/gaithoben/kenya-geo/master/ward/wardpolygons/0960.json"
      },
      {
        "code": "0959",
        "name": "CHEPTORORIET/SERETUT",
        "center": {
          "lat": -0.41509,
          "lon": 35.195001
        },
        "polygon": "https://raw.githubusercontent.com/gaithoben/kenya-geo/master/ward/wardpolygons/0959.json"
      },
      {
        "code": "0958",
        "name": "KABIANGA",
        "center": {
          "lat": -0.424912,
          "lon": 35.131336
        },
        "polygon": "https://raw.githubusercontent.com/gaithoben/kenya-geo/master/ward/wardpolygons/0958.json"
      },
      {
        "code": "0961",
        "name": "KAPSUSER",
        "center": {
          "lat": -0.3544,
          "lon": 35.222119
        },
        "polygon": "https://raw.githubusercontent.com/gaithoben/kenya-geo/master/ward/wardpolygons/0961.json"
      },
      {
        "code": "0957",
        "name": "WALDAI",
        "center": {
          "lat": -0.351098,
          "lon": 35.171326
        },
        "polygon": "https://raw.githubusercontent.com/gaithoben/kenya-geo/master/ward/wardpolygons/0957.json"
      }
    ],
    "polygon": "https://raw.githubusercontent.com/gaithoben/kenya-geo/master/constituency/constituencypolygons/192.json"
  },
  {
    "_id": "264",
    "code": "264",
    "name": "BOBASI",
    "center": {
      "lat": -0.830699,
      "lon": 34.808539
    },
    "wards": [
      {
        "code": "1319",
        "name": "BASI BOGETAORIO",
        "center": {
          "lat": -0.89033,
          "lon": 34.82854
        },
        "polygon": "https://raw.githubusercontent.com/gaithoben/kenya-geo/master/ward/wardpolygons/1319.json"
      },
      {
        "code": "1317",
        "name": "BASI CENTRAL",
        "center": {
          "lat": -0.829829,
          "lon": 34.841325
        },
        "polygon": "https://raw.githubusercontent.com/gaithoben/kenya-geo/master/ward/wardpolygons/1317.json"
      },
      {
        "code": "1322",
        "name": "BOBASI BOITANGARE",
        "center": {
          "lat": -0.785858,
          "lon": 34.799357
        },
        "polygon": "https://raw.githubusercontent.com/gaithoben/kenya-geo/master/ward/wardpolygons/1322.json"
      },
      {
        "code": "1320",
        "name": "BOBASI CHACHE",
        "center": {
          "lat": -0.733211,
          "lon": 34.74326
        },
        "polygon": "https://raw.githubusercontent.com/gaithoben/kenya-geo/master/ward/wardpolygons/1320.json"
      },
      {
        "code": "1316",
        "name": "MASIGE EAST",
        "center": {
          "lat": -0.823679,
          "lon": 34.792933
        },
        "polygon": "https://raw.githubusercontent.com/gaithoben/kenya-geo/master/ward/wardpolygons/1316.json"
      },
      {
        "code": "1315",
        "name": "MASIGE WEST",
        "center": {
          "lat": -0.833219,
          "lon": 34.77054
        },
        "polygon": "https://raw.githubusercontent.com/gaithoben/kenya-geo/master/ward/wardpolygons/1315.json"
      },
      {
        "code": "1318",
        "name": "NYACHEKI",
        "center": {
          "lat": -0.880607,
          "lon": 34.877414
        },
        "polygon": "https://raw.githubusercontent.com/gaithoben/kenya-geo/master/ward/wardpolygons/1318.json"
      },
      {
        "code": "1321",
        "name": "SAMETA/MOKWERERO",
        "center": {
          "lat": -0.774464,
          "lon": 34.755483
        },
        "polygon": "https://raw.githubusercontent.com/gaithoben/kenya-geo/master/ward/wardpolygons/1321.json"
      }
    ],
    "polygon": "https://raw.githubusercontent.com/gaithoben/kenya-geo/master/constituency/constituencypolygons/264.json"
  },
  {
    "_id": "263",
    "code": "263",
    "name": "BOMACHOGE BORABU",
    "center": {
      "lat": -0.910306,
      "lon": 34.754751
    },
    "wards": [
      {
        "code": "1313",
        "name": "BOKIMONGE",
        "center": {
          "lat": -0.906003,
          "lon": 34.75136
        },
        "polygon": "https://raw.githubusercontent.com/gaithoben/kenya-geo/master/ward/wardpolygons/1313.json"
      },
      {
        "code": "1311",
        "name": "BOMBABA BORABU",
        "center": {
          "lat": -0.890862,
          "lon": 34.777214
        },
        "polygon": "https://raw.githubusercontent.com/gaithoben/kenya-geo/master/ward/wardpolygons/1311.json"
      },
      {
        "code": "1312",
        "name": "BOOCHI BORABU",
        "center": {
          "lat": -0.907886,
          "lon": 34.808329
        },
        "polygon": "https://raw.githubusercontent.com/gaithoben/kenya-geo/master/ward/wardpolygons/1312.json"
      },
      {
        "code": "1314",
        "name": "MAGENCHE",
        "center": {
          "lat": -0.921218,
          "lon": 34.714053
        },
        "polygon": "https://raw.githubusercontent.com/gaithoben/kenya-geo/master/ward/wardpolygons/1314.json"
      }
    ],
    "polygon": "https://raw.githubusercontent.com/gaithoben/kenya-geo/master/constituency/constituencypolygons/263.json"
  },
  {
    "_id": "265",
    "code": "265",
    "name": "BOMACHOGE CHACHE",
    "center": {
      "lat": -0.810179,
      "lon": 34.709283
    },
    "wards": [
      {
        "code": "1324",
        "name": "BOOCHI/TENDERE",
        "center": {
          "lat": -0.798718,
          "lon": 34.719482
        },
        "polygon": "https://raw.githubusercontent.com/gaithoben/kenya-geo/master/ward/wardpolygons/1324.json"
      },
      {
        "code": "1325",
        "name": "BOSOTI/SENGERA",
        "center": {
          "lat": -0.84872,
          "lon": 34.707579
        },
        "polygon": "https://raw.githubusercontent.com/gaithoben/kenya-geo/master/ward/wardpolygons/1325.json"
      },
      {
        "code": "1323",
        "name": "MAJOGE BASI",
        "center": {
          "lat": -0.742793,
          "lon": 34.699902
        },
        "polygon": "https://raw.githubusercontent.com/gaithoben/kenya-geo/master/ward/wardpolygons/1323.json"
      }
    ],
    "polygon": "https://raw.githubusercontent.com/gaithoben/kenya-geo/master/constituency/constituencypolygons/265.json"
  },
  {
    "_id": "197",
    "code": "197",
    "name": "BOMET CENTRAL",
    "center": {
      "lat": -0.721573,
      "lon": 35.314474
    },
    "wards": [
      {
        "code": "0984",
        "name": "CHESOEN",
        "center": {
          "lat": -0.686898,
          "lon": 35.287833
        },
        "polygon": "https://raw.githubusercontent.com/gaithoben/kenya-geo/master/ward/wardpolygons/0984.json"
      },
      {
        "code": "0985",
        "name": "MUTARAKWA",
        "center": {
          "lat": -0.760262,
          "lon": 35.260605
        },
        "polygon": "https://raw.githubusercontent.com/gaithoben/kenya-geo/master/ward/wardpolygons/0985.json"
      },
      {
        "code": "0982",
        "name": "NDARAWETA",
        "center": {
          "lat": -0.681688,
          "lon": 35.379138
        },
        "polygon": "https://raw.githubusercontent.com/gaithoben/kenya-geo/master/ward/wardpolygons/0982.json"
      },
      {
        "code": "0981",
        "name": "SILIBWET TOWNSHIP",
        "center": {
          "lat": -0.741015,
          "lon": 35.349266
        },
        "polygon": "https://raw.githubusercontent.com/gaithoben/kenya-geo/master/ward/wardpolygons/0981.json"
      },
      {
        "code": "0983",
        "name": "SINGORWET",
        "center": {
          "lat": -0.712021,
          "lon": 35.338906
        },
        "polygon": "https://raw.githubusercontent.com/gaithoben/kenya-geo/master/ward/wardpolygons/0983.json"
      }
    ],
    "polygon": "https://raw.githubusercontent.com/gaithoben/kenya-geo/master/constituency/constituencypolygons/197.json"
  },
  {
    "_id": "196",
    "code": "196",
    "name": "BOMET EAST",
    "center": {
      "lat": -0.832325,
      "lon": 35.418952
    },
    "wards": [
      {
        "code": "0980",
        "name": "CHEMANER",
        "center": {
          "lat": -0.803787,
          "lon": 35.492318
        },
        "polygon": "https://raw.githubusercontent.com/gaithoben/kenya-geo/master/ward/wardpolygons/0980.json"
      },
      {
        "code": "0977",
        "name": "KEMBU",
        "center": {
          "lat": -0.803229,
          "lon": 35.427499
        },
        "polygon": "https://raw.githubusercontent.com/gaithoben/kenya-geo/master/ward/wardpolygons/0977.json"
      },
      {
        "code": "0979",
        "name": "KIPRERES",
        "center": {
          "lat": -0.915019,
          "lon": 35.380045
        },
        "polygon": "https://raw.githubusercontent.com/gaithoben/kenya-geo/master/ward/wardpolygons/0979.json"
      },
      {
        "code": "0978",
        "name": "LONGISA",
        "center": {
          "lat": -0.848226,
          "lon": 35.406433
        },
        "polygon": "https://raw.githubusercontent.com/gaithoben/kenya-geo/master/ward/wardpolygons/0978.json"
      },
      {
        "code": "0976",
        "name": "MERIGI",
        "center": {
          "lat": -0.760479,
          "lon": 35.409997
        },
        "polygon": "https://raw.githubusercontent.com/gaithoben/kenya-geo/master/ward/wardpolygons/0976.json"
      }
    ],
    "polygon": "https://raw.githubusercontent.com/gaithoben/kenya-geo/master/constituency/constituencypolygons/196.json"
  },
  {
    "_id": "261",
    "code": "261",
    "name": "BONCHARI",
    "center": {
      "lat": -0.664599,
      "lon": 34.689852
    },
    "wards": [
      {
        "code": "1302",
        "name": "BOGIAKUMU",
        "center": {
          "lat": -0.665997,
          "lon": 34.728056
        },
        "polygon": "https://raw.githubusercontent.com/gaithoben/kenya-geo/master/ward/wardpolygons/1302.json"
      },
      {
        "code": "1301",
        "name": "BOMARIBA",
        "center": {
          "lat": -0.624333,
          "lon": 34.694407
        },
        "polygon": "https://raw.githubusercontent.com/gaithoben/kenya-geo/master/ward/wardpolygons/1301.json"
      },
      {
        "code": "1303",
        "name": "BOMORENDA",
        "center": {
          "lat": -0.689633,
          "lon": 34.705294
        },
        "polygon": "https://raw.githubusercontent.com/gaithoben/kenya-geo/master/ward/wardpolygons/1303.json"
      },
      {
        "code": "1304",
        "name": "RIANA",
        "center": {
          "lat": -0.662184,
          "lon": 34.660717
        },
        "polygon": "https://raw.githubusercontent.com/gaithoben/kenya-geo/master/ward/wardpolygons/1304.json"
      }
    ],
    "polygon": "https://raw.githubusercontent.com/gaithoben/kenya-geo/master/constituency/constituencypolygons/261.json"
  },
  {
    "_id": "236",
    "code": "236",
    "name": "BONDO",
    "center": {
      "lat": -0.161981,
      "lon": 34.127597
    },
    "wards": [
      {
        "code": "1176",
        "name": "CENTRAL SAKWA",
        "center": {
          "lat": -0.232113,
          "lon": 34.094243
        },
        "polygon": "https://raw.githubusercontent.com/gaithoben/kenya-geo/master/ward/wardpolygons/1176.json"
      },
      {
        "code": "1180",
        "name": "NORTH SAKWA",
        "center": {
          "lat": -0.083545,
          "lon": 34.308058
        },
        "polygon": "https://raw.githubusercontent.com/gaithoben/kenya-geo/master/ward/wardpolygons/1180.json"
      },
      {
        "code": "1177",
        "name": "SOUTH SAKWA",
        "center": {
          "lat": -0.226622,
          "lon": 34.217435
        },
        "polygon": "https://raw.githubusercontent.com/gaithoben/kenya-geo/master/ward/wardpolygons/1177.json"
      },
      {
        "code": "1179",
        "name": "WEST SAKWA",
        "center": {
          "lat": -0.077698,
          "lon": 34.209333
        },
        "polygon": "https://raw.githubusercontent.com/gaithoben/kenya-geo/master/ward/wardpolygons/1179.json"
      },
      {
        "code": "1175",
        "name": "WEST YIMBO",
        "center": {
          "lat": -0.129621,
          "lon": 34.014864
        },
        "polygon": "https://raw.githubusercontent.com/gaithoben/kenya-geo/master/ward/wardpolygons/1175.json"
      },
      {
        "code": "1178",
        "name": "YIMBO EAST",
        "center": {
          "lat": -0.02293,
          "lon": 34.122247
        },
        "polygon": "https://raw.githubusercontent.com/gaithoben/kenya-geo/master/ward/wardpolygons/1178.json"
      }
    ],
    "polygon": "https://raw.githubusercontent.com/gaithoben/kenya-geo/master/constituency/constituencypolygons/236.json"
  },
  {
    "_id": "273",
    "code": "273",
    "name": "BORABU",
    "center": {
      "lat": -0.713771,
      "lon": 35.021785
    },
    "wards": [
      {
        "code": "1365",
        "name": "ESISE",
        "center": {
          "lat": -0.804708,
          "lon": 35.035883
        },
        "polygon": "https://raw.githubusercontent.com/gaithoben/kenya-geo/master/ward/wardpolygons/1365.json"
      },
      {
        "code": "1363",
        "name": "KIABONYORU",
        "center": {
          "lat": -0.588964,
          "lon": 34.988162
        },
        "polygon": "https://raw.githubusercontent.com/gaithoben/kenya-geo/master/ward/wardpolygons/1363.json"
      },
      {
        "code": "1362",
        "name": "MEKENENE",
        "center": {
          "lat": -0.621285,
          "lon": 35.040001
        },
        "polygon": "https://raw.githubusercontent.com/gaithoben/kenya-geo/master/ward/wardpolygons/1362.json"
      },
      {
        "code": "1364",
        "name": "NYANSIONGO",
        "center": {
          "lat": -0.75658,
          "lon": 35.005452
        },
        "polygon": "https://raw.githubusercontent.com/gaithoben/kenya-geo/master/ward/wardpolygons/1364.json"
      }
    ],
    "polygon": "https://raw.githubusercontent.com/gaithoben/kenya-geo/master/constituency/constituencypolygons/273.json"
  },
  {
    "_id": "231",
    "code": "231",
    "name": "BUDALANGI",
    "center": {
      "lat": 0.07906,
      "lon": 33.995693
    },
    "wards": [
      {
        "code": "1152",
        "name": "BUNYALA CENTRAL",
        "center": {
          "lat": 0.078213,
          "lon": 34.041143
        },
        "polygon": "https://raw.githubusercontent.com/gaithoben/kenya-geo/master/ward/wardpolygons/1152.json"
      },
      {
        "code": "1153",
        "name": "BUNYALA NORTH",
        "center": {
          "lat": 0.142691,
          "lon": 34.028305
        },
        "polygon": "https://raw.githubusercontent.com/gaithoben/kenya-geo/master/ward/wardpolygons/1153.json"
      },
      {
        "code": "1155",
        "name": "BUNYALA SOUTH",
        "center": {
          "lat": 0.029459,
          "lon": 33.98534
        },
        "polygon": "https://raw.githubusercontent.com/gaithoben/kenya-geo/master/ward/wardpolygons/1155.json"
      },
      {
        "code": "1154",
        "name": "BUNYALA WEST",
        "center": {
          "lat": 0.114056,
          "lon": 33.957228
        },
        "polygon": "https://raw.githubusercontent.com/gaithoben/kenya-geo/master/ward/wardpolygons/1154.json"
      }
    ],
    "polygon": "https://raw.githubusercontent.com/gaithoben/kenya-geo/master/constituency/constituencypolygons/231.json"
  },
  {
    "_id": "219",
    "code": "219",
    "name": "BUMULA",
    "center": {
      "lat": 0.566062,
      "lon": 34.456255
    },
    "wards": [
      {
        "code": "1090",
        "name": "BUMULA",
        "center": {
          "lat": 0.537727,
          "lon": 34.435396
        },
        "polygon": "https://raw.githubusercontent.com/gaithoben/kenya-geo/master/ward/wardpolygons/1090.json"
      },
      {
        "code": "1092",
        "name": "KABULA",
        "center": {
          "lat": 0.48721,
          "lon": 34.523935
        },
        "polygon": "https://raw.githubusercontent.com/gaithoben/kenya-geo/master/ward/wardpolygons/1092.json"
      },
      {
        "code": "1091",
        "name": "KHASOKO",
        "center": {
          "lat": 0.489825,
          "lon": 34.421245
        },
        "polygon": "https://raw.githubusercontent.com/gaithoben/kenya-geo/master/ward/wardpolygons/1091.json"
      },
      {
        "code": "1093",
        "name": "KIMAETI",
        "center": {
          "lat": 0.609829,
          "lon": 34.404587
        },
        "polygon": "https://raw.githubusercontent.com/gaithoben/kenya-geo/master/ward/wardpolygons/1093.json"
      },
      {
        "code": "1095",
        "name": "SIBOTI",
        "center": {
          "lat": 0.655902,
          "lon": 34.464716
        },
        "polygon": "https://raw.githubusercontent.com/gaithoben/kenya-geo/master/ward/wardpolygons/1095.json"
      },
      {
        "code": "1089",
        "name": "SOUTH BUKUSU",
        "center": {
          "lat": 0.539864,
          "lon": 34.488063
        },
        "polygon": "https://raw.githubusercontent.com/gaithoben/kenya-geo/master/ward/wardpolygons/1089.json"
      },
      {
        "code": "1094",
        "name": "WEST BUKUSU",
        "center": {
          "lat": 0.604036,
          "lon": 34.477704
        },
        "polygon": "https://raw.githubusercontent.com/gaithoben/kenya-geo/master/ward/wardpolygons/1094.json"
      }
    ],
    "polygon": "https://raw.githubusercontent.com/gaithoben/kenya-geo/master/constituency/constituencypolygons/219.json"
  },
  {
    "_id": "020",
    "code": "020",
    "name": "BURA",
    "center": {
      "lat": -0.597591,
      "lon": 39.247662
    },
    "wards": [
      {
        "code": "0098",
        "name": "BANGALE",
        "center": {
          "lat": -0.416237,
          "lon": 38.933253
        },
        "polygon": "https://raw.githubusercontent.com/gaithoben/kenya-geo/master/ward/wardpolygons/0098.json"
      },
      {
        "code": "0096",
        "name": "CHEWELE",
        "center": {
          "lat": -0.863795,
          "lon": 39.697149
        },
        "polygon": "https://raw.githubusercontent.com/gaithoben/kenya-geo/master/ward/wardpolygons/0096.json"
      },
      {
        "code": "0097",
        "name": "HIRIMANI",
        "center": {
          "lat": -0.973278,
          "lon": 39.337237
        },
        "polygon": "https://raw.githubusercontent.com/gaithoben/kenya-geo/master/ward/wardpolygons/0097.json"
      },
      {
        "code": "0100",
        "name": "MADOGO",
        "center": {
          "lat": -0.271352,
          "lon": 39.307042
        },
        "polygon": "https://raw.githubusercontent.com/gaithoben/kenya-geo/master/ward/wardpolygons/0100.json"
      },
      {
        "code": "0099",
        "name": "SALA",
        "center": {
          "lat": -0.578696,
          "lon": 39.572332
        },
        "polygon": "https://raw.githubusercontent.com/gaithoben/kenya-geo/master/ward/wardpolygons/0099.json"
      }
    ],
    "polygon": "https://raw.githubusercontent.com/gaithoben/kenya-geo/master/constituency/constituencypolygons/020.json"
  },
  {
    "_id": "191",
    "code": "191",
    "name": "BURETI",
    "center": {
      "lat": -0.562575,
      "lon": 35.133333
    },
    "wards": [
      {
        "code": "0952",
        "name": "CHEBOIN",
        "center": {
          "lat": -0.560634,
          "lon": 35.127993
        },
        "polygon": "https://raw.githubusercontent.com/gaithoben/kenya-geo/master/ward/wardpolygons/0952.json"
      },
      {
        "code": "0953",
        "name": "CHEMOSOT",
        "center": {
          "lat": -0.511032,
          "lon": 35.170295
        },
        "polygon": "https://raw.githubusercontent.com/gaithoben/kenya-geo/master/ward/wardpolygons/0953.json"
      },
      {
        "code": "0955",
        "name": "CHEPLANGET",
        "center": {
          "lat": -0.630694,
          "lon": 35.113384
        },
        "polygon": "https://raw.githubusercontent.com/gaithoben/kenya-geo/master/ward/wardpolygons/0955.json"
      },
      {
        "code": "0956",
        "name": "KAPKATET",
        "center": {
          "lat": -0.616945,
          "lon": 35.190018
        },
        "polygon": "https://raw.githubusercontent.com/gaithoben/kenya-geo/master/ward/wardpolygons/0956.json"
      },
      {
        "code": "0950",
        "name": "KISIARA",
        "center": {
          "lat": -0.484569,
          "lon": 35.109684
        },
        "polygon": "https://raw.githubusercontent.com/gaithoben/kenya-geo/master/ward/wardpolygons/0950.json"
      },
      {
        "code": "0954",
        "name": "LITEIN",
        "center": {
          "lat": -0.591388,
          "lon": 35.156815
        },
        "polygon": "https://raw.githubusercontent.com/gaithoben/kenya-geo/master/ward/wardpolygons/0954.json"
      },
      {
        "code": "0951",
        "name": "TEBESONIK",
        "center": {
          "lat": -0.544417,
          "lon": 35.081527
        },
        "polygon": "https://raw.githubusercontent.com/gaithoben/kenya-geo/master/ward/wardpolygons/0951.json"
      }
    ],
    "polygon": "https://raw.githubusercontent.com/gaithoben/kenya-geo/master/constituency/constituencypolygons/191.json"
  },
  {
    "_id": "207",
    "code": "207",
    "name": "BUTERE",
    "center": {
      "lat": 0.222388,
      "lon": 34.523482
    },
    "wards": [
      {
        "code": "1033",
        "name": "MARAMA CENTRAL",
        "center": {
          "lat": 0.257005,
          "lon": 34.498419
        },
        "polygon": "https://raw.githubusercontent.com/gaithoben/kenya-geo/master/ward/wardpolygons/1033.json"
      },
      {
        "code": "1035",
        "name": "MARAMA NORTH",
        "center": {
          "lat": 0.211672,
          "lon": 34.580237
        },
        "polygon": "https://raw.githubusercontent.com/gaithoben/kenya-geo/master/ward/wardpolygons/1035.json"
      },
      {
        "code": "1036",
        "name": "MARAMA SOUTH",
        "center": {
          "lat": 0.183733,
          "lon": 34.458056
        },
        "polygon": "https://raw.githubusercontent.com/gaithoben/kenya-geo/master/ward/wardpolygons/1036.json"
      },
      {
        "code": "1032",
        "name": "MARAMA WEST",
        "center": {
          "lat": 0.249418,
          "lon": 34.567321
        },
        "polygon": "https://raw.githubusercontent.com/gaithoben/kenya-geo/master/ward/wardpolygons/1032.json"
      },
      {
        "code": "1034",
        "name": "MARENYO - SHIANDA",
        "center": {
          "lat": 0.189383,
          "lon": 34.516359
        },
        "polygon": "https://raw.githubusercontent.com/gaithoben/kenya-geo/master/ward/wardpolygons/1034.json"
      }
    ],
    "polygon": "https://raw.githubusercontent.com/gaithoben/kenya-geo/master/constituency/constituencypolygons/207.json"
  },
  {
    "_id": "229",
    "code": "229",
    "name": "BUTULA",
    "center": {
      "lat": 0.351619,
      "lon": 34.29461
    },
    "wards": [
      {
        "code": "1147",
        "name": "ELUGULU",
        "center": {
          "lat": 0.387999,
          "lon": 34.311771
        },
        "polygon": "https://raw.githubusercontent.com/gaithoben/kenya-geo/master/ward/wardpolygons/1147.json"
      },
      {
        "code": "1143",
        "name": "KINGANDOLE",
        "center": {
          "lat": 0.363531,
          "lon": 34.233383
        },
        "polygon": "https://raw.githubusercontent.com/gaithoben/kenya-geo/master/ward/wardpolygons/1143.json"
      },
      {
        "code": "1144",
        "name": "MARACHI CENTRAL",
        "center": {
          "lat": 0.350191,
          "lon": 34.269655
        },
        "polygon": "https://raw.githubusercontent.com/gaithoben/kenya-geo/master/ward/wardpolygons/1144.json"
      },
      {
        "code": "1145",
        "name": "MARACHI EAST",
        "center": {
          "lat": 0.334846,
          "lon": 34.337779
        },
        "polygon": "https://raw.githubusercontent.com/gaithoben/kenya-geo/master/ward/wardpolygons/1145.json"
      },
      {
        "code": "1146",
        "name": "MARACHI NORTH",
        "center": {
          "lat": 0.385812,
          "lon": 34.36566
        },
        "polygon": "https://raw.githubusercontent.com/gaithoben/kenya-geo/master/ward/wardpolygons/1146.json"
      },
      {
        "code": "1142",
        "name": "MARACHI WEST",
        "center": {
          "lat": 0.311833,
          "lon": 34.207278
        },
        "polygon": "https://raw.githubusercontent.com/gaithoben/kenya-geo/master/ward/wardpolygons/1142.json"
      }
    ],
    "polygon": "https://raw.githubusercontent.com/gaithoben/kenya-geo/master/constituency/constituencypolygons/229.json"
  },
  {
    "_id": "057",
    "code": "057",
    "name": "BUURI",
    "center": {
      "lat": 0.087303,
      "lon": 37.397816
    },
    "wards": [
      {
        "code": "0289",
        "name": "KIBIRICHIA",
        "center": {
          "lat": 0.222104,
          "lon": 37.59363
        },
        "polygon": "https://raw.githubusercontent.com/gaithoben/kenya-geo/master/ward/wardpolygons/0289.json"
      },
      {
        "code": "0283",
        "name": "KIIRUA/NAARI",
        "center": {
          "lat": 0.11767,
          "lon": 37.388502
        },
        "polygon": "https://raw.githubusercontent.com/gaithoben/kenya-geo/master/ward/wardpolygons/0283.json"
      },
      {
        "code": "0282",
        "name": "KISIMA",
        "center": {
          "lat": -0.015356,
          "lon": 37.226347
        },
        "polygon": "https://raw.githubusercontent.com/gaithoben/kenya-geo/master/ward/wardpolygons/0282.json"
      },
      {
        "code": "0284",
        "name": "RUIRI/RWARERA",
        "center": {
          "lat": 0.143877,
          "lon": 37.571206
        },
        "polygon": "https://raw.githubusercontent.com/gaithoben/kenya-geo/master/ward/wardpolygons/0284.json"
      },
      {
        "code": "0281",
        "name": "TIMAU",
        "center": {
          "lat": 0.004525,
          "lon": 37.861727
        },
        "polygon": "https://raw.githubusercontent.com/gaithoben/kenya-geo/master/ward/wardpolygons/0281.json"
      }
    ],
    "polygon": "https://raw.githubusercontent.com/gaithoben/kenya-geo/master/constituency/constituencypolygons/057.json"
  },
  {
    "_id": "058",
    "code": "058",
    "name": "CENTRAL IMENTI",
    "center": {
      "lat": -0.040134,
      "lon": 37.682817
    },
    "wards": [
      {
        "code": "0286",
        "name": "ABOTHUGUCHI CENTRAL",
        "center": {
          "lat": -0.02371,
          "lon": 37.739352
        },
        "polygon": "https://raw.githubusercontent.com/gaithoben/kenya-geo/master/ward/wardpolygons/0286.json"
      },
      {
        "code": "0287",
        "name": "ABOTHUGUCHI WEST",
        "center": {
          "lat": -0.069157,
          "lon": 37.835524
        },
        "polygon": "https://raw.githubusercontent.com/gaithoben/kenya-geo/master/ward/wardpolygons/0287.json"
      },
      {
        "code": "0288",
        "name": "KIAGU",
        "center": {
          "lat": 0.049979,
          "lon": 37.476752
        },
        "polygon": "https://raw.githubusercontent.com/gaithoben/kenya-geo/master/ward/wardpolygons/0288.json"
      },
      {
        "code": "0285",
        "name": "MWANGANTHIA",
        "center": {
          "lat": -0.02986,
          "lon": 37.511801
        },
        "polygon": "https://raw.githubusercontent.com/gaithoben/kenya-geo/master/ward/wardpolygons/0285.json"
      }
    ],
    "polygon": "https://raw.githubusercontent.com/gaithoben/kenya-geo/master/constituency/constituencypolygons/058.json"
  },
  {
    "_id": "001",
    "code": "001",
    "name": "CHANGAMWE",
    "center": {
      "lat": -4.026797,
      "lon": 39.614571
    },
    "wards": [
      {
        "code": "0003",
        "name": "AIRPORT",
        "center": {
          "lat": -4.027917,
          "lon": 39.60074
        },
        "polygon": "https://raw.githubusercontent.com/gaithoben/kenya-geo/master/ward/wardpolygons/0003.json"
      },
      {
        "code": "0005",
        "name": "CHAANI",
        "center": {
          "lat": -4.034228,
          "lon": 39.631367
        },
        "polygon": "https://raw.githubusercontent.com/gaithoben/kenya-geo/master/ward/wardpolygons/0005.json"
      },
      {
        "code": "0004",
        "name": "CHANGAMWE",
        "center": {
          "lat": -4.013916,
          "lon": 39.62081
        },
        "polygon": "https://raw.githubusercontent.com/gaithoben/kenya-geo/master/ward/wardpolygons/0004.json"
      },
      {
        "code": "0002",
        "name": "KIPEVU",
        "center": {
          "lat": -4.025515,
          "lon": 39.621533
        },
        "polygon": "https://raw.githubusercontent.com/gaithoben/kenya-geo/master/ward/wardpolygons/0002.json"
      },
      {
        "code": "0001",
        "name": "PORT REITZ",
        "center": {
          "lat": -4.033013,
          "lon": 39.612601
        },
        "polygon": "https://raw.githubusercontent.com/gaithoben/kenya-geo/master/ward/wardpolygons/0001.json"
      }
    ],
    "polygon": "https://raw.githubusercontent.com/gaithoben/kenya-geo/master/constituency/constituencypolygons/001.json"
  },
  {
    "_id": "195",
    "code": "195",
    "name": "CHEPALUNGU",
    "center": {
      "lat": -0.896278,
      "lon": 35.252002
    },
    "wards": [
      {
        "code": "0974",
        "name": "CHEBUNYO",
        "center": {
          "lat": -0.960995,
          "lon": 35.20172
        },
        "polygon": "https://raw.githubusercontent.com/gaithoben/kenya-geo/master/ward/wardpolygons/0974.json"
      },
      {
        "code": "0971",
        "name": "KONG'ASIS",
        "center": {
          "lat": -0.836833,
          "lon": 35.233422
        },
        "polygon": "https://raw.githubusercontent.com/gaithoben/kenya-geo/master/ward/wardpolygons/0971.json"
      },
      {
        "code": "0972",
        "name": "NYANGORES",
        "center": {
          "lat": -0.822836,
          "lon": 35.316912
        },
        "polygon": "https://raw.githubusercontent.com/gaithoben/kenya-geo/master/ward/wardpolygons/0972.json"
      },
      {
        "code": "0973",
        "name": "SIGOR",
        "center": {
          "lat": -0.933525,
          "lon": 35.296675
        },
        "polygon": "https://raw.githubusercontent.com/gaithoben/kenya-geo/master/ward/wardpolygons/0973.json"
      },
      {
        "code": "0975",
        "name": "SIONGIROI",
        "center": {
          "lat": -0.884607,
          "lon": 35.194392
        },
        "polygon": "https://raw.githubusercontent.com/gaithoben/kenya-geo/master/ward/wardpolygons/0975.json"
      }
    ],
    "polygon": "https://raw.githubusercontent.com/gaithoben/kenya-geo/master/constituency/constituencypolygons/195.json"
  },
  {
    "_id": "140",
    "code": "140",
    "name": "CHERANGANY",
    "center": {
      "lat": 1.026251,
      "lon": 35.191681
    },
    "wards": [
      {
        "code": "0699",
        "name": "CHEPSIRO/KIPTOROR",
        "center": {
          "lat": 0.971871,
          "lon": 35.304642
        },
        "polygon": "https://raw.githubusercontent.com/gaithoben/kenya-geo/master/ward/wardpolygons/0699.json"
      },
      {
        "code": "0698",
        "name": "CHERANGANY/SUWERWA",
        "center": {
          "lat": 1.03436,
          "lon": 35.237577
        },
        "polygon": "https://raw.githubusercontent.com/gaithoben/kenya-geo/master/ward/wardpolygons/0698.json"
      },
      {
        "code": "0696",
        "name": "KAPLAMAI",
        "center": {
          "lat": 0.981353,
          "lon": 35.106155
        },
        "polygon": "https://raw.githubusercontent.com/gaithoben/kenya-geo/master/ward/wardpolygons/0696.json"
      },
      {
        "code": "0695",
        "name": "MAKUTANO",
        "center": {
          "lat": 1.10335,
          "lon": 35.172804
        },
        "polygon": "https://raw.githubusercontent.com/gaithoben/kenya-geo/master/ward/wardpolygons/0695.json"
      },
      {
        "code": "0697",
        "name": "MOTOSIET",
        "center": {
          "lat": 0.97268,
          "lon": 35.173523
        },
        "polygon": "https://raw.githubusercontent.com/gaithoben/kenya-geo/master/ward/wardpolygons/0697.json"
      },
      {
        "code": "0694",
        "name": "SINYERERE",
        "center": {
          "lat": 1.129275,
          "lon": 35.129093
        },
        "polygon": "https://raw.githubusercontent.com/gaithoben/kenya-geo/master/ward/wardpolygons/0694.json"
      },
      {
        "code": "0700",
        "name": "SITATUNGA",
        "center": {
          "lat": 1.070196,
          "lon": 35.095698
        },
        "polygon": "https://raw.githubusercontent.com/gaithoben/kenya-geo/master/ward/wardpolygons/0700.json"
      }
    ],
    "polygon": "https://raw.githubusercontent.com/gaithoben/kenya-geo/master/constituency/constituencypolygons/140.json"
  },
  {
    "_id": "154",
    "code": "154",
    "name": "CHESUMEI",
    "center": {
      "lat": 0.283948,
      "lon": 35.091244
    },
    "wards": [
      {
        "code": "0765",
        "name": "CHEMUNDU/KAPNG'ETUNY",
        "center": {
          "lat": 0.240428,
          "lon": 35.078133
        },
        "polygon": "https://raw.githubusercontent.com/gaithoben/kenya-geo/master/ward/wardpolygons/0765.json"
      },
      {
        "code": "0768",
        "name": "KAPTEL/KAMOIYWO",
        "center": {
          "lat": 0.307181,
          "lon": 35.045678
        },
        "polygon": "https://raw.githubusercontent.com/gaithoben/kenya-geo/master/ward/wardpolygons/0768.json"
      },
      {
        "code": "0769",
        "name": "KIPTUYA",
        "center": {
          "lat": 0.19447,
          "lon": 35.015328
        },
        "polygon": "https://raw.githubusercontent.com/gaithoben/kenya-geo/master/ward/wardpolygons/0769.json"
      },
      {
        "code": "0766",
        "name": "KOSIRAI",
        "center": {
          "lat": 0.280329,
          "lon": 35.139338
        },
        "polygon": "https://raw.githubusercontent.com/gaithoben/kenya-geo/master/ward/wardpolygons/0766.json"
      },
      {
        "code": "0767",
        "name": "LELMOKWO/NGECHEK",
        "center": {
          "lat": 0.352563,
          "lon": 35.176995
        },
        "polygon": "https://raw.githubusercontent.com/gaithoben/kenya-geo/master/ward/wardpolygons/0767.json"
      }
    ],
    "polygon": "https://raw.githubusercontent.com/gaithoben/kenya-geo/master/constituency/constituencypolygons/154.json"
  },
  {
    "_id": "061",
    "code": "061",
    "name": "CHUKA/IGAMBANG'OMBE",
    "center": {
      "lat": -0.337467,
      "lon": 37.672188
    },
    "wards": [
      {
        "code": "0305",
        "name": "IGAMBANG'OMBE",
        "center": {
          "lat": -0.371524,
          "lon": 37.806965
        },
        "polygon": "https://raw.githubusercontent.com/gaithoben/kenya-geo/master/ward/wardpolygons/0305.json"
      },
      {
        "code": "0302",
        "name": "KARINGANI",
        "center": {
          "lat": -0.284477,
          "lon": 37.574152
        },
        "polygon": "https://raw.githubusercontent.com/gaithoben/kenya-geo/master/ward/wardpolygons/0302.json"
      },
      {
        "code": "0303",
        "name": "MAGUMONI",
        "center": {
          "lat": -0.322743,
          "lon": 37.551607
        },
        "polygon": "https://raw.githubusercontent.com/gaithoben/kenya-geo/master/ward/wardpolygons/0303.json"
      },
      {
        "code": "0301",
        "name": "MARIANI",
        "center": {
          "lat": -0.344026,
          "lon": 37.747326
        },
        "polygon": "https://raw.githubusercontent.com/gaithoben/kenya-geo/master/ward/wardpolygons/0301.json"
      },
      {
        "code": "0304",
        "name": "MUGWE",
        "center": {
          "lat": -0.325883,
          "lon": 37.61115
        },
        "polygon": "https://raw.githubusercontent.com/gaithoben/kenya-geo/master/ward/wardpolygons/0304.json"
      }
    ],
    "polygon": "https://raw.githubusercontent.com/gaithoben/kenya-geo/master/constituency/constituencypolygons/061.json"
  },
  {
    "_id": "030",
    "code": "030",
    "name": "DADAAB",
    "center": {
      "lat": 0.065733,
      "lon": 40.372216
    },
    "wards": [
      {
        "code": "0151",
        "name": "ABAKAILE",
        "center": {
          "lat": 0.167508,
          "lon": 40.012292
        },
        "polygon": "https://raw.githubusercontent.com/gaithoben/kenya-geo/master/ward/wardpolygons/0151.json"
      },
      {
        "code": "0147",
        "name": "DADAAB",
        "center": {
          "lat": 0.055519,
          "lon": 40.282754
        },
        "polygon": "https://raw.githubusercontent.com/gaithoben/kenya-geo/master/ward/wardpolygons/0147.json"
      },
      {
        "code": "0149",
        "name": "DAMAJALE",
        "center": {
          "lat": -0.057247,
          "lon": 40.730616
        },
        "polygon": "https://raw.githubusercontent.com/gaithoben/kenya-geo/master/ward/wardpolygons/0149.json"
      },
      {
        "code": "0146",
        "name": "DERTU",
        "center": {
          "lat": 0.025754,
          "lon": 39.769622
        },
        "polygon": "https://raw.githubusercontent.com/gaithoben/kenya-geo/master/ward/wardpolygons/0146.json"
      },
      {
        "code": "0148",
        "name": "LABASIGALE",
        "center": {
          "lat": 0.181812,
          "lon": 40.205464
        },
        "polygon": "https://raw.githubusercontent.com/gaithoben/kenya-geo/master/ward/wardpolygons/0148.json"
      },
      {
        "code": "0150",
        "name": "LIBOI",
        "center": {
          "lat": 0.238144,
          "lon": 40.791276
        },
        "polygon": "https://raw.githubusercontent.com/gaithoben/kenya-geo/master/ward/wardpolygons/0150.json"
      }
    ],
    "polygon": "https://raw.githubusercontent.com/gaithoben/kenya-geo/master/constituency/constituencypolygons/030.json"
  },
  {
    "_id": "275",
    "code": "275",
    "name": "DAGORETTI NORTH",
    "center": {
      "lat": -1.278738,
      "lon": 36.780121
    },
    "wards": [
      {
        "code": "1373",
        "name": "GATINA",
        "center": {
          "lat": -1.276502,
          "lon": 36.75559
        },
        "polygon": "https://raw.githubusercontent.com/gaithoben/kenya-geo/master/ward/wardpolygons/1373.json"
      },
      {
        "code": "1375",
        "name": "KABIRO",
        "center": {
          "lat": -1.279694,
          "lon": 36.73853
        },
        "polygon": "https://raw.githubusercontent.com/gaithoben/kenya-geo/master/ward/wardpolygons/1375.json"
      },
      {
        "code": "1372",
        "name": "KAWANGWARE",
        "center": {
          "lat": -1.280871,
          "lon": 36.746964
        },
        "polygon": "https://raw.githubusercontent.com/gaithoben/kenya-geo/master/ward/wardpolygons/1372.json"
      },
      {
        "code": "1374",
        "name": "KILELESHWA",
        "center": {
          "lat": -1.268457,
          "lon": 36.78488
        },
        "polygon": "https://raw.githubusercontent.com/gaithoben/kenya-geo/master/ward/wardpolygons/1374.json"
      },
      {
        "code": "1371",
        "name": "KILIMANI",
        "center": {
          "lat": -1.284027,
          "lon": 36.783782
        },
        "polygon": "https://raw.githubusercontent.com/gaithoben/kenya-geo/master/ward/wardpolygons/1371.json"
      }
    ],
    "polygon": "https://raw.githubusercontent.com/gaithoben/kenya-geo/master/constituency/constituencypolygons/275.json"
  },
  {
    "_id": "276",
    "code": "276",
    "name": "DAGORETTI SOUTH",
    "center": {
      "lat": -1.282524,
      "lon": 36.715569
    },
    "wards": [
      {
        "code": "1376",
        "name": "MUTU-INI",
        "center": {
          "lat": -1.291623,
          "lon": 36.698621
        },
        "polygon": "https://raw.githubusercontent.com/gaithoben/kenya-geo/master/ward/wardpolygons/1376.json"
      },
      {
        "code": "1377",
        "name": "NGANDO",
        "center": {
          "lat": -1.298297,
          "lon": 36.744224
        },
        "polygon": "https://raw.githubusercontent.com/gaithoben/kenya-geo/master/ward/wardpolygons/1377.json"
      },
      {
        "code": "1378",
        "name": "RIRUTA",
        "center": {
          "lat": -1.285974,
          "lon": 36.734677
        },
        "polygon": "https://raw.githubusercontent.com/gaithoben/kenya-geo/master/ward/wardpolygons/1378.json"
      },
      {
        "code": "1379",
        "name": "UTHIRU/RUTHIMITU",
        "center": {
          "lat": -1.268825,
          "lon": 36.706263
        },
        "polygon": "https://raw.githubusercontent.com/gaithoben/kenya-geo/master/ward/wardpolygons/1379.json"
      },
      {
        "code": "1380",
        "name": "WAITHAKA",
        "center": {
          "lat": -1.284333,
          "lon": 36.715385
        },
        "polygon": "https://raw.githubusercontent.com/gaithoben/kenya-geo/master/ward/wardpolygons/1380.json"
      }
    ],
    "polygon": "https://raw.githubusercontent.com/gaithoben/kenya-geo/master/constituency/constituencypolygons/276.json"
  },
  {
    "_id": "291",
    "code": "291",
    "name": "DIASPORA",
    "center": {
      "lat": 0,
      "lon": 0
    },
    "wards": [
      {
        "code": "1555",
        "name": "DIASPORA",
        "center": {
          "lat": 0,
          "lon": 0
        },
        "polygon": ""
      },
      {
        "code": "1454",
        "name": "BURUNDI",
        "center": {
          "lat": 0,
          "lon": 0
        },
        "polygon": "https://raw.githubusercontent.com/gaithoben/kenya-geo/master/ward/wardpolygons/1454.json"
      },
      {
        "code": "1453",
        "name": "RWANDA",
        "center": {
          "lat": 0,
          "lon": 0
        },
        "polygon": "https://raw.githubusercontent.com/gaithoben/kenya-geo/master/ward/wardpolygons/1453.json"
      },
      {
        "code": "1451",
        "name": "TANZANIA",
        "center": {
          "lat": 0,
          "lon": 0
        },
        "polygon": "https://raw.githubusercontent.com/gaithoben/kenya-geo/master/ward/wardpolygons/1451.json"
      },
      {
        "code": "1452",
        "name": "UGANDA",
        "center": {
          "lat": 0,
          "lon": 0
        },
        "polygon": "https://raw.githubusercontent.com/gaithoben/kenya-geo/master/ward/wardpolygons/1452.json"
      }
    ],
    "polygon": "https://raw.githubusercontent.com/gaithoben/kenya-geo/master/constituency/constituencypolygons/291.json"
  },
  {
    "_id": "162",
    "code": "162",
    "name": "ELDAMA RAVINE",
    "center": {
      "lat": 0.021768,
      "lon": 35.745561
    },
    "wards": [
      {
        "code": "0810",
        "name": "KOIBATEK",
        "center": {
          "lat": -0.050377,
          "lon": 35.792296
        },
        "polygon": "https://raw.githubusercontent.com/gaithoben/kenya-geo/master/ward/wardpolygons/0810.json"
      },
      {
        "code": "0805",
        "name": "LEMBUS",
        "center": {
          "lat": 0.016029,
          "lon": 35.904863
        },
        "polygon": "https://raw.githubusercontent.com/gaithoben/kenya-geo/master/ward/wardpolygons/0805.json"
      },
      {
        "code": "0806",
        "name": "LEMBUS KWEN",
        "center": {
          "lat": 0.114533,
          "lon": 35.665737
        },
        "polygon": "https://raw.githubusercontent.com/gaithoben/kenya-geo/master/ward/wardpolygons/0806.json"
      },
      {
        "code": "0809",
        "name": "LEMBUS/PERKERRA",
        "center": {
          "lat": 0.084033,
          "lon": 35.790572
        },
        "polygon": "https://raw.githubusercontent.com/gaithoben/kenya-geo/master/ward/wardpolygons/0809.json"
      },
      {
        "code": "0808",
        "name": "MUMBERES/MAJI MAZURI",
        "center": {
          "lat": -0.039803,
          "lon": 35.672346
        },
        "polygon": "https://raw.githubusercontent.com/gaithoben/kenya-geo/master/ward/wardpolygons/0808.json"
      },
      {
        "code": "0807",
        "name": "RAVINE",
        "center": {
          "lat": 0.023079,
          "lon": 35.726113
        },
        "polygon": "https://raw.githubusercontent.com/gaithoben/kenya-geo/master/ward/wardpolygons/0807.json"
      }
    ],
    "polygon": "https://raw.githubusercontent.com/gaithoben/kenya-geo/master/constituency/constituencypolygons/162.json"
  },
  {
    "_id": "037",
    "code": "037",
    "name": "ELDAS",
    "center": {
      "lat": 2.280838,
      "lon": 39.456215
    },
    "wards": [
      {
        "code": "0181",
        "name": "DELLA",
        "center": {
          "lat": 2.417344,
          "lon": 39.702113
        },
        "polygon": "https://raw.githubusercontent.com/gaithoben/kenya-geo/master/ward/wardpolygons/0181.json"
      },
      {
        "code": "0180",
        "name": "ELDAS",
        "center": {
          "lat": 2.443059,
          "lon": 39.514542
        },
        "polygon": "https://raw.githubusercontent.com/gaithoben/kenya-geo/master/ward/wardpolygons/0180.json"
      },
      {
        "code": "0183",
        "name": "ELNUR/TULA TULA",
        "center": {
          "lat": 2.055894,
          "lon": 39.80451
        },
        "polygon": "https://raw.githubusercontent.com/gaithoben/kenya-geo/master/ward/wardpolygons/0183.json"
      },
      {
        "code": "0182",
        "name": "LAKOLEY SOUTH/BASIR",
        "center": {
          "lat": 2.307852,
          "lon": 39.194239
        },
        "polygon": "https://raw.githubusercontent.com/gaithoben/kenya-geo/master/ward/wardpolygons/0182.json"
      }
    ],
    "polygon": "https://raw.githubusercontent.com/gaithoben/kenya-geo/master/constituency/constituencypolygons/037.json"
  },
  {
    "_id": "284",
    "code": "284",
    "name": "EMBAKASI CENTRAL",
    "center": {
      "lat": -1.268431,
      "lon": 36.921099
    },
    "wards": [
      {
        "code": "1417",
        "name": "KAYOLE CENTRAL",
        "center": {
          "lat": -1.274347,
          "lon": 36.914566
        },
        "polygon": "https://raw.githubusercontent.com/gaithoben/kenya-geo/master/ward/wardpolygons/1417.json"
      },
      {
        "code": "1416",
        "name": "KAYOLE NORTH",
        "center": {
          "lat": -1.265796,
          "lon": 36.920229
        },
        "polygon": "https://raw.githubusercontent.com/gaithoben/kenya-geo/master/ward/wardpolygons/1416.json"
      },
      {
        "code": "1418",
        "name": "KAYOLE SOUTH",
        "center": {
          "lat": -1.281992,
          "lon": 36.912089
        },
        "polygon": "https://raw.githubusercontent.com/gaithoben/kenya-geo/master/ward/wardpolygons/1418.json"
      },
      {
        "code": "1419",
        "name": "KOMAROCK",
        "center": {
          "lat": -1.265546,
          "lon": 36.909933
        },
        "polygon": "https://raw.githubusercontent.com/gaithoben/kenya-geo/master/ward/wardpolygons/1419.json"
      },
      {
        "code": "1420",
        "name": "MATOPENI/SPRING VALLEY",
        "center": {
          "lat": -1.258623,
          "lon": 36.930703
        },
        "polygon": "https://raw.githubusercontent.com/gaithoben/kenya-geo/master/ward/wardpolygons/1420.json"
      }
    ],
    "polygon": "https://raw.githubusercontent.com/gaithoben/kenya-geo/master/constituency/constituencypolygons/284.json"
  },
  {
    "_id": "285",
    "code": "285",
    "name": "EMBAKASI EAST",
    "center": {
      "lat": -1.306139,
      "lon": 36.93679
    },
    "wards": [
      {
        "code": "1423",
        "name": "EMBAKASI",
        "center": {
          "lat": -1.321884,
          "lon": 36.935403
        },
        "polygon": "https://raw.githubusercontent.com/gaithoben/kenya-geo/master/ward/wardpolygons/1423.json"
      },
      {
        "code": "1422",
        "name": "LOWER SAVANNAH",
        "center": {
          "lat": -1.284739,
          "lon": 36.906558
        },
        "polygon": "https://raw.githubusercontent.com/gaithoben/kenya-geo/master/ward/wardpolygons/1422.json"
      },
      {
        "code": "1425",
        "name": "MIHANGO",
        "center": {
          "lat": -1.278048,
          "lon": 36.949251
        },
        "polygon": "https://raw.githubusercontent.com/gaithoben/kenya-geo/master/ward/wardpolygons/1425.json"
      },
      {
        "code": "1421",
        "name": "UPPER SAVANNAH",
        "center": {
          "lat": -1.293006,
          "lon": 36.89571
        },
        "polygon": "https://raw.githubusercontent.com/gaithoben/kenya-geo/master/ward/wardpolygons/1421.json"
      },
      {
        "code": "1424",
        "name": "UTAWALA",
        "center": {
          "lat": -1.299853,
          "lon": 36.903168
        },
        "polygon": "https://raw.githubusercontent.com/gaithoben/kenya-geo/master/ward/wardpolygons/1424.json"
      }
    ],
    "polygon": "https://raw.githubusercontent.com/gaithoben/kenya-geo/master/constituency/constituencypolygons/285.json"
  },
  {
    "_id": "283",
    "code": "283",
    "name": "EMBAKASI NORTH",
    "center": {
      "lat": -1.247138,
      "lon": 36.897499
    },
    "wards": [
      {
        "code": "1412",
        "name": "DANDORA AREA I",
        "center": {
          "lat": -1.254543,
          "lon": 36.888104
        },
        "polygon": "https://raw.githubusercontent.com/gaithoben/kenya-geo/master/ward/wardpolygons/1412.json"
      },
      {
        "code": "1413",
        "name": "DANDORA AREA II",
        "center": {
          "lat": -1.248195,
          "lon": 36.897791
        },
        "polygon": "https://raw.githubusercontent.com/gaithoben/kenya-geo/master/ward/wardpolygons/1413.json"
      },
      {
        "code": "1414",
        "name": "DANDORA AREA III",
        "center": {
          "lat": -1.243237,
          "lon": 36.905329
        },
        "polygon": "https://raw.githubusercontent.com/gaithoben/kenya-geo/master/ward/wardpolygons/1414.json"
      },
      {
        "code": "1415",
        "name": "DANDORA AREA IV",
        "center": {
          "lat": -1.239296,
          "lon": 36.912174
        },
        "polygon": "https://raw.githubusercontent.com/gaithoben/kenya-geo/master/ward/wardpolygons/1415.json"
      },
      {
        "code": "1411",
        "name": "KARIOBANGI NORTH",
        "center": {
          "lat": -1.252178,
          "lon": 36.881413
        },
        "polygon": "https://raw.githubusercontent.com/gaithoben/kenya-geo/master/ward/wardpolygons/1411.json"
      }
    ],
    "polygon": "https://raw.githubusercontent.com/gaithoben/kenya-geo/master/constituency/constituencypolygons/283.json"
  },
  {
    "_id": "282",
    "code": "282",
    "name": "EMBAKASI SOUTH",
    "center": {
      "lat": -1.329057,
      "lon": 36.877524
    },
    "wards": [
      {
        "code": "1406",
        "name": "IMARA DAIMA",
        "center": {
          "lat": -1.342913,
          "lon": 36.883223
        },
        "polygon": "https://raw.githubusercontent.com/gaithoben/kenya-geo/master/ward/wardpolygons/1406.json"
      },
      {
        "code": "1407",
        "name": "KWA NJENGA",
        "center": {
          "lat": -1.321203,
          "lon": 36.88206
        },
        "polygon": "https://raw.githubusercontent.com/gaithoben/kenya-geo/master/ward/wardpolygons/1407.json"
      },
      {
        "code": "1408",
        "name": "KWA REUBEN",
        "center": {
          "lat": -1.319717,
          "lon": 36.863549
        },
        "polygon": "https://raw.githubusercontent.com/gaithoben/kenya-geo/master/ward/wardpolygons/1408.json"
      },
      {
        "code": "1410",
        "name": "KWARE",
        "center": {
          "lat": -1.316847,
          "lon": 36.886505
        },
        "polygon": "https://raw.githubusercontent.com/gaithoben/kenya-geo/master/ward/wardpolygons/1410.json"
      },
      {
        "code": "1409",
        "name": "PIPELINE",
        "center": {
          "lat": -1.313017,
          "lon": 36.890815
        },
        "polygon": "https://raw.githubusercontent.com/gaithoben/kenya-geo/master/ward/wardpolygons/1409.json"
      }
    ],
    "polygon": "https://raw.githubusercontent.com/gaithoben/kenya-geo/master/constituency/constituencypolygons/282.json"
  },
  {
    "_id": "286",
    "code": "286",
    "name": "EMBAKASI WEST",
    "center": {
      "lat": -1.268856,
      "lon": 36.897762
    },
    "wards": [
      {
        "code": "1429",
        "name": "KARIOBANGI SOUTH",
        "center": {
          "lat": -1.269137,
          "lon": 36.879799
        },
        "polygon": "https://raw.githubusercontent.com/gaithoben/kenya-geo/master/ward/wardpolygons/1429.json"
      },
      {
        "code": "1428",
        "name": "MOWLEM",
        "center": {
          "lat": -1.263736,
          "lon": 36.896002
        },
        "polygon": "https://raw.githubusercontent.com/gaithoben/kenya-geo/master/ward/wardpolygons/1428.json"
      },
      {
        "code": "1426",
        "name": "UMOJA I",
        "center": {
          "lat": -1.280002,
          "lon": 36.887335
        },
        "polygon": "https://raw.githubusercontent.com/gaithoben/kenya-geo/master/ward/wardpolygons/1426.json"
      },
      {
        "code": "1427",
        "name": "UMOJA II",
        "center": {
          "lat": -1.280576,
          "lon": 36.894768
        },
        "polygon": "https://raw.githubusercontent.com/gaithoben/kenya-geo/master/ward/wardpolygons/1427.json"
      }
    ],
    "polygon": "https://raw.githubusercontent.com/gaithoben/kenya-geo/master/constituency/constituencypolygons/286.json"
  },
  {
    "_id": "155",
    "code": "155",
    "name": "EMGWEN",
    "center": {
      "lat": 0.186586,
      "lon": 35.093338
    },
    "wards": [
      {
        "code": "0770",
        "name": "CHEPKUMIA",
        "center": {
          "lat": 0.129982,
          "lon": 34.962468
        },
        "polygon": "https://raw.githubusercontent.com/gaithoben/kenya-geo/master/ward/wardpolygons/0770.json"
      },
      {
        "code": "0771",
        "name": "KAPKANGANI",
        "center": {
          "lat": 0.203114,
          "lon": 34.958066
        },
        "polygon": "https://raw.githubusercontent.com/gaithoben/kenya-geo/master/ward/wardpolygons/0771.json"
      },
      {
        "code": "0772",
        "name": "KAPSABET",
        "center": {
          "lat": 0.173971,
          "lon": 35.080901
        },
        "polygon": "https://raw.githubusercontent.com/gaithoben/kenya-geo/master/ward/wardpolygons/0772.json"
      },
      {
        "code": "0773",
        "name": "KILIBWONI",
        "center": {
          "lat": 0.226424,
          "lon": 35.202342
        },
        "polygon": "https://raw.githubusercontent.com/gaithoben/kenya-geo/master/ward/wardpolygons/0773.json"
      }
    ],
    "polygon": "https://raw.githubusercontent.com/gaithoben/kenya-geo/master/constituency/constituencypolygons/155.json"
  },
  {
    "_id": "215",
    "code": "215",
    "name": "EMUHAYA",
    "center": {
      "lat": 0.08806,
      "lon": 34.614694
    },
    "wards": [
      {
        "code": "1074",
        "name": "CENTRAL BUNYORE",
        "center": {
          "lat": 0.088535,
          "lon": 34.61104
        },
        "polygon": "https://raw.githubusercontent.com/gaithoben/kenya-geo/master/ward/wardpolygons/1074.json"
      },
      {
        "code": "1073",
        "name": "NORTH EAST BUNYORE",
        "center": {
          "lat": 0.105063,
          "lon": 34.652454
        },
        "polygon": "https://raw.githubusercontent.com/gaithoben/kenya-geo/master/ward/wardpolygons/1073.json"
      },
      {
        "code": "1075",
        "name": "WEST BUNYORE",
        "center": {
          "lat": 0.081085,
          "lon": 34.579432
        },
        "polygon": "https://raw.githubusercontent.com/gaithoben/kenya-geo/master/ward/wardpolygons/1075.json"
      }
    ],
    "polygon": "https://raw.githubusercontent.com/gaithoben/kenya-geo/master/constituency/constituencypolygons/215.json"
  },
  {
    "_id": "178",
    "code": "178",
    "name": "EMURUA DIKIRR",
    "center": {
      "lat": -0.986714,
      "lon": 35.080385
    },
    "wards": [
      {
        "code": "0887",
        "name": "ILKERIN",
        "center": {
          "lat": -1.070852,
          "lon": 35.070817
        },
        "polygon": "https://raw.githubusercontent.com/gaithoben/kenya-geo/master/ward/wardpolygons/0887.json"
      },
      {
        "code": "0890",
        "name": "KAPSASIAN",
        "center": {
          "lat": -0.980498,
          "lon": 35.125946
        },
        "polygon": "https://raw.githubusercontent.com/gaithoben/kenya-geo/master/ward/wardpolygons/0890.json"
      },
      {
        "code": "0889",
        "name": "MOGONDO",
        "center": {
          "lat": -1.026777,
          "lon": 35.058772
        },
        "polygon": "https://raw.githubusercontent.com/gaithoben/kenya-geo/master/ward/wardpolygons/0889.json"
      },
      {
        "code": "0888",
        "name": "OLOlMASANI",
        "center": {
          "lat": -0.929381,
          "lon": 35.041934
        },
        "polygon": "https://raw.githubusercontent.com/gaithoben/kenya-geo/master/ward/wardpolygons/0888.json"
      }
    ],
    "polygon": "https://raw.githubusercontent.com/gaithoben/kenya-geo/master/constituency/constituencypolygons/178.json"
  },
  {
    "_id": "137",
    "code": "137",
    "name": "ENDEBESS",
    "center": {
      "lat": 1.127767,
      "lon": 34.772224
    },
    "wards": [
      {
        "code": "0680",
        "name": "CHEPCHOINA",
        "center": {
          "lat": 1.189326,
          "lon": 34.785637
        },
        "polygon": "https://raw.githubusercontent.com/gaithoben/kenya-geo/master/ward/wardpolygons/0680.json"
      },
      {
        "code": "0681",
        "name": "ENDEBESS",
        "center": {
          "lat": 1.057291,
          "lon": 34.794395
        },
        "polygon": "https://raw.githubusercontent.com/gaithoben/kenya-geo/master/ward/wardpolygons/0681.json"
      },
      {
        "code": "0682",
        "name": "MATUMBEI",
        "center": {
          "lat": 1.117032,
          "lon": 34.726119
        },
        "polygon": "https://raw.githubusercontent.com/gaithoben/kenya-geo/master/ward/wardpolygons/0682.json"
      }
    ],
    "polygon": "https://raw.githubusercontent.com/gaithoben/kenya-geo/master/constituency/constituencypolygons/137.json"
  },
  {
    "_id": "031",
    "code": "031",
    "name": "FAFI",
    "center": {
      "lat": -0.745956,
      "lon": 40.407881
    },
    "wards": [
      {
        "code": "0152",
        "name": "BURA",
        "center": {
          "lat": -1.153184,
          "lon": 40.357746
        },
        "polygon": "https://raw.githubusercontent.com/gaithoben/kenya-geo/master/ward/wardpolygons/0152.json"
      },
      {
        "code": "0153",
        "name": "DEKAHARIA",
        "center": {
          "lat": -1.058567,
          "lon": 40.821263
        },
        "polygon": "https://raw.githubusercontent.com/gaithoben/kenya-geo/master/ward/wardpolygons/0153.json"
      },
      {
        "code": "0155",
        "name": "FAFI",
        "center": {
          "lat": -0.4091,
          "lon": 40.262459
        },
        "polygon": "https://raw.githubusercontent.com/gaithoben/kenya-geo/master/ward/wardpolygons/0155.json"
      },
      {
        "code": "0154",
        "name": "JARAJILA",
        "center": {
          "lat": -0.448373,
          "lon": 40.670603
        },
        "polygon": "https://raw.githubusercontent.com/gaithoben/kenya-geo/master/ward/wardpolygons/0154.json"
      },
      {
        "code": "0156",
        "name": "NANIGHI",
        "center": {
          "lat": -0.684877,
          "lon": 40.08781
        },
        "polygon": "https://raw.githubusercontent.com/gaithoben/kenya-geo/master/ward/wardpolygons/0156.json"
      }
    ],
    "polygon": "https://raw.githubusercontent.com/gaithoben/kenya-geo/master/constituency/constituencypolygons/031.json"
  },
  {
    "_id": "230",
    "code": "230",
    "name": "FUNYULA",
    "center": {
      "lat": 0.24753,
      "lon": 34.077159
    },
    "wards": [
      {
        "code": "1150",
        "name": "AGENG'A NANGUBA",
        "center": {
          "lat": 0.235096,
          "lon": 34.05974
        },
        "polygon": "https://raw.githubusercontent.com/gaithoben/kenya-geo/master/ward/wardpolygons/1150.json"
      },
      {
        "code": "1151",
        "name": "BWIRI",
        "center": {
          "lat": 0.183185,
          "lon": 34.044141
        },
        "polygon": "https://raw.githubusercontent.com/gaithoben/kenya-geo/master/ward/wardpolygons/1151.json"
      },
      {
        "code": "1148",
        "name": "NAMBOBOTO NAMBUKU",
        "center": {
          "lat": 0.324584,
          "lon": 34.107059
        },
        "polygon": "https://raw.githubusercontent.com/gaithoben/kenya-geo/master/ward/wardpolygons/1148.json"
      },
      {
        "code": "1149",
        "name": "NANGINA",
        "center": {
          "lat": 0.283095,
          "lon": 34.11271
        },
        "polygon": "https://raw.githubusercontent.com/gaithoben/kenya-geo/master/ward/wardpolygons/1149.json"
      }
    ],
    "polygon": "https://raw.githubusercontent.com/gaithoben/kenya-geo/master/constituency/constituencypolygons/230.json"
  },
  {
    "_id": "019",
    "code": "019",
    "name": "GALOLE",
    "center": {
      "lat": -1.492638,
      "lon": 39.502345
    },
    "wards": [
      {
        "code": "0094",
        "name": "CHEWANI",
        "center": {
          "lat": -1.359518,
          "lon": 40.009258
        },
        "polygon": "https://raw.githubusercontent.com/gaithoben/kenya-geo/master/ward/wardpolygons/0094.json"
      },
      {
        "code": "0092",
        "name": "KINAKOMBA",
        "center": {
          "lat": -1.73928,
          "lon": 40.020872
        },
        "polygon": "https://raw.githubusercontent.com/gaithoben/kenya-geo/master/ward/wardpolygons/0092.json"
      },
      {
        "code": "0093",
        "name": "MIKINDUNI",
        "center": {
          "lat": -1.589321,
          "lon": 39.923654
        },
        "polygon": "https://raw.githubusercontent.com/gaithoben/kenya-geo/master/ward/wardpolygons/0093.json"
      },
      {
        "code": "0095",
        "name": "WAYU",
        "center": {
          "lat": -1.46709,
          "lon": 39.386754
        },
        "polygon": "https://raw.githubusercontent.com/gaithoben/kenya-geo/master/ward/wardpolygons/0095.json"
      }
    ],
    "polygon": "https://raw.githubusercontent.com/gaithoben/kenya-geo/master/constituency/constituencypolygons/019.json"
  },
  {
    "_id": "015",
    "code": "015",
    "name": "GANZE",
    "center": {
      "lat": -3.452556,
      "lon": 39.510173
    },
    "wards": [
      {
        "code": "0072",
        "name": "BAMBA",
        "center": {
          "lat": -3.499757,
          "lon": 39.350654
        },
        "polygon": "https://raw.githubusercontent.com/gaithoben/kenya-geo/master/ward/wardpolygons/0072.json"
      },
      {
        "code": "0071",
        "name": "GANZE",
        "center": {
          "lat": -3.45935,
          "lon": 39.619758
        },
        "polygon": "https://raw.githubusercontent.com/gaithoben/kenya-geo/master/ward/wardpolygons/0071.json"
      },
      {
        "code": "0073",
        "name": "JARIBUNI",
        "center": {
          "lat": -3.612295,
          "lon": 39.680844
        },
        "polygon": "https://raw.githubusercontent.com/gaithoben/kenya-geo/master/ward/wardpolygons/0073.json"
      },
      {
        "code": "0074",
        "name": "SOKOKE",
        "center": {
          "lat": -3.319291,
          "lon": 39.657216
        },
        "polygon": "https://raw.githubusercontent.com/gaithoben/kenya-geo/master/ward/wardpolygons/0074.json"
      }
    ],
    "polygon": "https://raw.githubusercontent.com/gaithoben/kenya-geo/master/constituency/constituencypolygons/015.json"
  },
  {
    "_id": "027",
    "code": "027",
    "name": "GARISSA TOWNSHIP",
    "center": {
      "lat": -0.246034,
      "lon": 39.590128
    },
    "wards": [
      {
        "code": "0132",
        "name": "GALBET",
        "center": {
          "lat": -0.406041,
          "lon": 39.655211
        },
        "polygon": "https://raw.githubusercontent.com/gaithoben/kenya-geo/master/ward/wardpolygons/0132.json"
      },
      {
        "code": "0134",
        "name": "IFTIN",
        "center": {
          "lat": -0.454113,
          "lon": 39.789161
        },
        "polygon": "https://raw.githubusercontent.com/gaithoben/kenya-geo/master/ward/wardpolygons/0134.json"
      },
      {
        "code": "0133",
        "name": "TOWNSHIP",
        "center": {
          "lat": -0.450279,
          "lon": 39.641388
        },
        "polygon": "https://raw.githubusercontent.com/gaithoben/kenya-geo/master/ward/wardpolygons/0133.json"
      },
      {
        "code": "0131",
        "name": "WABERI",
        "center": {
          "lat": -0.362226,
          "lon": 39.743825
        },
        "polygon": "https://raw.githubusercontent.com/gaithoben/kenya-geo/master/ward/wardpolygons/0131.json"
      }
    ],
    "polygon": "https://raw.githubusercontent.com/gaithoben/kenya-geo/master/constituency/constituencypolygons/027.json"
  },
  {
    "_id": "018",
    "code": "018",
    "name": "GARSEN",
    "center": {
      "lat": -2.33553,
      "lon": 39.510143
    },
    "wards": [
      {
        "code": "0089",
        "name": "GARSEN CENTRAL",
        "center": {
          "lat": -2.326102,
          "lon": 40.206964
        },
        "polygon": "https://raw.githubusercontent.com/gaithoben/kenya-geo/master/ward/wardpolygons/0089.json"
      },
      {
        "code": "0091",
        "name": "GARSEN NORTH",
        "center": {
          "lat": -2.008148,
          "lon": 39.999678
        },
        "polygon": "https://raw.githubusercontent.com/gaithoben/kenya-geo/master/ward/wardpolygons/0091.json"
      },
      {
        "code": "0087",
        "name": "GARSEN SOUTH",
        "center": {
          "lat": -2.424454,
          "lon": 40.090158
        },
        "polygon": "https://raw.githubusercontent.com/gaithoben/kenya-geo/master/ward/wardpolygons/0087.json"
      },
      {
        "code": "0090",
        "name": "GARSEN WEST",
        "center": {
          "lat": -2.365921,
          "lon": 39.318444
        },
        "polygon": "https://raw.githubusercontent.com/gaithoben/kenya-geo/master/ward/wardpolygons/0090.json"
      },
      {
        "code": "0086",
        "name": "KIPINI EAST",
        "center": {
          "lat": -2.487262,
          "lon": 40.52761
        },
        "polygon": "https://raw.githubusercontent.com/gaithoben/kenya-geo/master/ward/wardpolygons/0086.json"
      },
      {
        "code": "0088",
        "name": "KIPINI WEST",
        "center": {
          "lat": -2.550847,
          "lon": 40.265249
        },
        "polygon": "https://raw.githubusercontent.com/gaithoben/kenya-geo/master/ward/wardpolygons/0088.json"
      }
    ],
    "polygon": "https://raw.githubusercontent.com/gaithoben/kenya-geo/master/constituency/constituencypolygons/018.json"
  },
  {
    "_id": "110",
    "code": "110",
    "name": "GATANGA",
    "center": {
      "lat": -0.940489,
      "lon": 37.069444
    },
    "wards": [
      {
        "code": "0549",
        "name": "GATANGA",
        "center": {
          "lat": -0.90531,
          "lon": 36.921458
        },
        "polygon": "https://raw.githubusercontent.com/gaithoben/kenya-geo/master/ward/wardpolygons/0549.json"
      },
      {
        "code": "0545",
        "name": "ITHANGA",
        "center": {
          "lat": -0.985207,
          "lon": 37.344504
        },
        "polygon": "https://raw.githubusercontent.com/gaithoben/kenya-geo/master/ward/wardpolygons/0545.json"
      },
      {
        "code": "0546",
        "name": "KAKUZI/MITUBIRI",
        "center": {
          "lat": -1.01507,
          "lon": 37.238735
        },
        "polygon": "https://raw.githubusercontent.com/gaithoben/kenya-geo/master/ward/wardpolygons/0546.json"
      },
      {
        "code": "0550",
        "name": "KARIARA",
        "center": {
          "lat": -0.807406,
          "lon": 36.804678
        },
        "polygon": "https://raw.githubusercontent.com/gaithoben/kenya-geo/master/ward/wardpolygons/0550.json"
      },
      {
        "code": "0548",
        "name": "KIHUMBU-INI",
        "center": {
          "lat": -0.915652,
          "lon": 36.974245
        },
        "polygon": "https://raw.githubusercontent.com/gaithoben/kenya-geo/master/ward/wardpolygons/0548.json"
      },
      {
        "code": "0547",
        "name": "MUGUMO-INI",
        "center": {
          "lat": -0.976867,
          "lon": 37.030909
        },
        "polygon": "https://raw.githubusercontent.com/gaithoben/kenya-geo/master/ward/wardpolygons/0547.json"
      }
    ],
    "polygon": "https://raw.githubusercontent.com/gaithoben/kenya-geo/master/constituency/constituencypolygons/110.json"
  },
  {
    "_id": "112",
    "code": "112",
    "name": "GATUNDU NORTH",
    "center": {
      "lat": -0.906317,
      "lon": 36.828785
    },
    "wards": [
      {
        "code": "0557",
        "name": "CHANIA",
        "center": {
          "lat": -0.949628,
          "lon": 36.924251
        },
        "polygon": "https://raw.githubusercontent.com/gaithoben/kenya-geo/master/ward/wardpolygons/0557.json"
      },
      {
        "code": "0556",
        "name": "GITHOBOKONI",
        "center": {
          "lat": -0.882245,
          "lon": 36.772797
        },
        "polygon": "https://raw.githubusercontent.com/gaithoben/kenya-geo/master/ward/wardpolygons/0556.json"
      },
      {
        "code": "0555",
        "name": "GITUAMBA",
        "center": {
          "lat": -0.877757,
          "lon": 36.823152
        },
        "polygon": "https://raw.githubusercontent.com/gaithoben/kenya-geo/master/ward/wardpolygons/0555.json"
      },
      {
        "code": "0558",
        "name": "MANG'U",
        "center": {
          "lat": -0.985752,
          "lon": 36.935144
        },
        "polygon": "https://raw.githubusercontent.com/gaithoben/kenya-geo/master/ward/wardpolygons/0558.json"
      }
    ],
    "polygon": "https://raw.githubusercontent.com/gaithoben/kenya-geo/master/constituency/constituencypolygons/112.json"
  },
  {
    "_id": "111",
    "code": "111",
    "name": "GATUNDU SOUTH",
    "center": {
      "lat": -0.969705,
      "lon": 36.823119
    },
    "wards": [
      {
        "code": "0551",
        "name": "KIAMWANGI",
        "center": {
          "lat": -1.025677,
          "lon": 36.872042
        },
        "polygon": "https://raw.githubusercontent.com/gaithoben/kenya-geo/master/ward/wardpolygons/0551.json"
      },
      {
        "code": "0552",
        "name": "KIGANJO",
        "center": {
          "lat": -0.971712,
          "lon": 36.797908
        },
        "polygon": "https://raw.githubusercontent.com/gaithoben/kenya-geo/master/ward/wardpolygons/0552.json"
      },
      {
        "code": "0553",
        "name": "NDARUGU",
        "center": {
          "lat": -0.908822,
          "lon": 36.760831
        },
        "polygon": "https://raw.githubusercontent.com/gaithoben/kenya-geo/master/ward/wardpolygons/0553.json"
      },
      {
        "code": "0554",
        "name": "NGENDA",
        "center": {
          "lat": -1.005365,
          "lon": 36.895175
        },
        "polygon": "https://raw.githubusercontent.com/gaithoben/kenya-geo/master/ward/wardpolygons/0554.json"
      }
    ],
    "polygon": "https://raw.githubusercontent.com/gaithoben/kenya-geo/master/constituency/constituencypolygons/111.json"
  },
  {
    "_id": "235",
    "code": "235",
    "name": "GEM",
    "center": {
      "lat": 0.048855,
      "lon": 34.452667
    },
    "wards": [
      {
        "code": "1171",
        "name": "CENTRAL GEM",
        "center": {
          "lat": 0.077195,
          "lon": 34.470234
        },
        "polygon": "https://raw.githubusercontent.com/gaithoben/kenya-geo/master/ward/wardpolygons/1171.json"
      },
      {
        "code": "1173",
        "name": "EAST GEM",
        "center": {
          "lat": 0.036714,
          "lon": 34.518905
        },
        "polygon": "https://raw.githubusercontent.com/gaithoben/kenya-geo/master/ward/wardpolygons/1173.json"
      },
      {
        "code": "1169",
        "name": "NORTH GEM",
        "center": {
          "lat": 0.12336,
          "lon": 34.416248
        },
        "polygon": "https://raw.githubusercontent.com/gaithoben/kenya-geo/master/ward/wardpolygons/1169.json"
      },
      {
        "code": "1174",
        "name": "SOUTH GEM",
        "center": {
          "lat": -0.020404,
          "lon": 34.437644
        },
        "polygon": "https://raw.githubusercontent.com/gaithoben/kenya-geo/master/ward/wardpolygons/1174.json"
      },
      {
        "code": "1170",
        "name": "WEST GEM",
        "center": {
          "lat": 0.03781,
          "lon": 34.411152
        },
        "polygon": "https://raw.githubusercontent.com/gaithoben/kenya-geo/master/ward/wardpolygons/1170.json"
      },
      {
        "code": "1172",
        "name": "YALA TOWNSHIP",
        "center": {
          "lat": 0.106974,
          "lon": 34.529746
        },
        "polygon": "https://raw.githubusercontent.com/gaithoben/kenya-geo/master/ward/wardpolygons/1172.json"
      }
    ],
    "polygon": "https://raw.githubusercontent.com/gaithoben/kenya-geo/master/constituency/constituencypolygons/235.json"
  },
  {
    "_id": "101",
    "code": "101",
    "name": "GICHUGU",
    "center": {
      "lat": -0.398251,
      "lon": 37.347911
    },
    "wards": [
      {
        "code": "0505",
        "name": "BARAGWI",
        "center": {
          "lat": -0.499028,
          "lon": 37.346471
        },
        "polygon": "https://raw.githubusercontent.com/gaithoben/kenya-geo/master/ward/wardpolygons/0505.json"
      },
      {
        "code": "0504",
        "name": "KABARE",
        "center": {
          "lat": -0.394404,
          "lon": 37.307595
        },
        "polygon": "https://raw.githubusercontent.com/gaithoben/kenya-geo/master/ward/wardpolygons/0504.json"
      },
      {
        "code": "0508",
        "name": "KARUMANDI",
        "center": {
          "lat": -0.35596,
          "lon": 37.338811
        },
        "polygon": "https://raw.githubusercontent.com/gaithoben/kenya-geo/master/ward/wardpolygons/0508.json"
      },
      {
        "code": "0507",
        "name": "NGARIAMA",
        "center": {
          "lat": -0.359141,
          "lon": 37.377516
        },
        "polygon": "https://raw.githubusercontent.com/gaithoben/kenya-geo/master/ward/wardpolygons/0507.json"
      },
      {
        "code": "0506",
        "name": "NJUKIINI",
        "center": {
          "lat": -0.509481,
          "lon": 37.400576
        },
        "polygon": "https://raw.githubusercontent.com/gaithoben/kenya-geo/master/ward/wardpolygons/0506.json"
      }
    ],
    "polygon": "https://raw.githubusercontent.com/gaithoben/kenya-geo/master/constituency/constituencypolygons/101.json"
  },
  {
    "_id": "169",
    "code": "169",
    "name": "GILGIL",
    "center": {
      "lat": -0.536075,
      "lon": 36.259638
    },
    "wards": [
      {
        "code": "0845",
        "name": "ELEMENTAITA",
        "center": {
          "lat": -0.514254,
          "lon": 36.109143
        },
        "polygon": "https://raw.githubusercontent.com/gaithoben/kenya-geo/master/ward/wardpolygons/0845.json"
      },
      {
        "code": "0844",
        "name": "GILGIL",
        "center": {
          "lat": -0.484955,
          "lon": 36.31888
        },
        "polygon": "https://raw.githubusercontent.com/gaithoben/kenya-geo/master/ward/wardpolygons/0844.json"
      },
      {
        "code": "0847",
        "name": "MALEWA WEST",
        "center": {
          "lat": -0.647952,
          "lon": 36.36005
        },
        "polygon": "https://raw.githubusercontent.com/gaithoben/kenya-geo/master/ward/wardpolygons/0847.json"
      },
      {
        "code": "0846",
        "name": "MBARUK/EBURU",
        "center": {
          "lat": -0.520325,
          "lon": 36.207776
        },
        "polygon": "https://raw.githubusercontent.com/gaithoben/kenya-geo/master/ward/wardpolygons/0846.json"
      },
      {
        "code": "0848",
        "name": "MURINDATI",
        "center": {
          "lat": -0.453832,
          "lon": 36.352951
        },
        "polygon": "https://raw.githubusercontent.com/gaithoben/kenya-geo/master/ward/wardpolygons/0848.json"
      }
    ],
    "polygon": "https://raw.githubusercontent.com/gaithoben/kenya-geo/master/constituency/constituencypolygons/169.json"
  },
  {
    "_id": "116",
    "code": "116",
    "name": "GITHUNGURI",
    "center": {
      "lat": -1.06763,
      "lon": 36.794324
    },
    "wards": [
      {
        "code": "0578",
        "name": "GITHIGA",
        "center": {
          "lat": -1.069341,
          "lon": 36.722602
        },
        "polygon": "https://raw.githubusercontent.com/gaithoben/kenya-geo/master/ward/wardpolygons/0578.json"
      },
      {
        "code": "0577",
        "name": "GITHUNGURI",
        "center": {
          "lat": -1.059635,
          "lon": 36.780025
        },
        "polygon": "https://raw.githubusercontent.com/gaithoben/kenya-geo/master/ward/wardpolygons/0577.json"
      },
      {
        "code": "0579",
        "name": "IKINU",
        "center": {
          "lat": -1.103489,
          "lon": 36.803895
        },
        "polygon": "https://raw.githubusercontent.com/gaithoben/kenya-geo/master/ward/wardpolygons/0579.json"
      },
      {
        "code": "0581",
        "name": "KOMOTHAI",
        "center": {
          "lat": -1.034043,
          "lon": 36.835524
        },
        "polygon": "https://raw.githubusercontent.com/gaithoben/kenya-geo/master/ward/wardpolygons/0581.json"
      },
      {
        "code": "0580",
        "name": "NGEWA",
        "center": {
          "lat": -1.074362,
          "lon": 36.837261
        },
        "polygon": "https://raw.githubusercontent.com/gaithoben/kenya-geo/master/ward/wardpolygons/0580.json"
      }
    ],
    "polygon": "https://raw.githubusercontent.com/gaithoben/kenya-geo/master/constituency/constituencypolygons/116.json"
  },
  {
    "_id": "213",
    "code": "213",
    "name": "HAMISI",
    "center": {
      "lat": 0.098125,
      "lon": 34.821339
    },
    "wards": [
      {
        "code": "1064",
        "name": "BANJA",
        "center": {
          "lat": 0.064103,
          "lon": 34.821132
        },
        "polygon": "https://raw.githubusercontent.com/gaithoben/kenya-geo/master/ward/wardpolygons/1064.json"
      },
      {
        "code": "1062",
        "name": "GISAMBAI",
        "center": {
          "lat": 0.059969,
          "lon": 34.767779
        },
        "polygon": "https://raw.githubusercontent.com/gaithoben/kenya-geo/master/ward/wardpolygons/1062.json"
      },
      {
        "code": "1067",
        "name": "JEPKOYAI",
        "center": {
          "lat": 0.026533,
          "lon": 34.737315
        },
        "polygon": "https://raw.githubusercontent.com/gaithoben/kenya-geo/master/ward/wardpolygons/1067.json"
      },
      {
        "code": "1065",
        "name": "MUHUDU",
        "center": {
          "lat": 0.17439,
          "lon": 34.84908
        },
        "polygon": "https://raw.githubusercontent.com/gaithoben/kenya-geo/master/ward/wardpolygons/1065.json"
      },
      {
        "code": "1063",
        "name": "SHAMAKHOKHO",
        "center": {
          "lat": 0.104713,
          "lon": 34.834068
        },
        "polygon": "https://raw.githubusercontent.com/gaithoben/kenya-geo/master/ward/wardpolygons/1063.json"
      },
      {
        "code": "1061",
        "name": "SHIRU",
        "center": {
          "lat": 0.163719,
          "lon": 34.880291
        },
        "polygon": "https://raw.githubusercontent.com/gaithoben/kenya-geo/master/ward/wardpolygons/1061.json"
      },
      {
        "code": "1066",
        "name": "TAMBUA",
        "center": {
          "lat": 0.024883,
          "lon": 34.777204
        },
        "polygon": "https://raw.githubusercontent.com/gaithoben/kenya-geo/master/ward/wardpolygons/1066.json"
      }
    ],
    "polygon": "https://raw.githubusercontent.com/gaithoben/kenya-geo/master/constituency/constituencypolygons/213.json"
  },
  {
    "_id": "249",
    "code": "249",
    "name": "HOMA BAY TOWN",
    "center": {
      "lat": -0.554185,
      "lon": 34.475295
    },
    "wards": [
      {
        "code": "1242",
        "name": "HOMA BAY ARUJO",
        "center": {
          "lat": -0.557671,
          "lon": 34.453626
        },
        "polygon": "https://raw.githubusercontent.com/gaithoben/kenya-geo/master/ward/wardpolygons/1242.json"
      },
      {
        "code": "1241",
        "name": "HOMA BAY CENTRAL",
        "center": {
          "lat": -0.535213,
          "lon": 34.460493
        },
        "polygon": "https://raw.githubusercontent.com/gaithoben/kenya-geo/master/ward/wardpolygons/1241.json"
      },
      {
        "code": "1244",
        "name": "HOMA BAY EAST",
        "center": {
          "lat": -0.534072,
          "lon": 34.48794
        },
        "polygon": "https://raw.githubusercontent.com/gaithoben/kenya-geo/master/ward/wardpolygons/1244.json"
      },
      {
        "code": "1243",
        "name": "HOMA BAY WEST",
        "center": {
          "lat": -0.587807,
          "lon": 34.446597
        },